{
  "source": "OurAirports airports.csv",
  "sourceUrl": "https://ourairports.com/data/",
  "country": "AU",
  "generatedAt": "2026-06-27T01:19:32.680Z",
  "count": 2279,
  "airfields": [
    {
      "ident": "AGY",
      "name": "Argyle Downs Airport",
      "type": "small_airport",
      "latitudeDeg": -16.508604,
      "longitudeDeg": 128.922485,
      "elevationFt": 407,
      "region": "AU-WA",
      "municipality": "Argyle Downs"
    },
    {
      "ident": "ANZ",
      "name": "Angus Downs Airport",
      "type": "small_airport",
      "latitudeDeg": -25.0325,
      "longitudeDeg": 132.2748,
      "elevationFt": 1724,
      "region": "AU-NT",
      "municipality": "Angus Downs Station",
      "iataCode": "ANZ",
      "gpsCode": "YADN"
    },
    {
      "ident": "AU-0002",
      "name": "Dwellingup Airstrip",
      "type": "small_airport",
      "latitudeDeg": -32.6926994324,
      "longitudeDeg": 116.074996948,
      "region": "AU-WA",
      "municipality": "Dwellingup",
      "localCode": "A01"
    },
    {
      "ident": "AU-0003",
      "name": "Tjukayirla Roadhouse Airstrip",
      "type": "small_airport",
      "latitudeDeg": -27.155199,
      "longitudeDeg": 124.584999,
      "elevationFt": 1425,
      "region": "AU-WA",
      "municipality": "Cosmo Newbery",
      "localCode": "A02"
    },
    {
      "ident": "AU-0004",
      "name": "Langley Park Airstrip",
      "type": "small_airport",
      "latitudeDeg": -31.9612293243,
      "longitudeDeg": 115.867866516,
      "elevationFt": 11,
      "region": "AU-WA",
      "municipality": "Perth",
      "localCode": "A03"
    },
    {
      "ident": "AU-0005",
      "name": "Myrup fly in estate Airport",
      "type": "small_airport",
      "latitudeDeg": -33.789272,
      "longitudeDeg": 121.956847,
      "elevationFt": 30,
      "region": "AU-WA",
      "gpsCode": "YMYU",
      "localCode": "A04"
    },
    {
      "ident": "AU-0006",
      "name": "Harrismith Airport",
      "type": "small_airport",
      "latitudeDeg": -32.9418449402,
      "longitudeDeg": 117.865447998,
      "elevationFt": 900,
      "region": "AU-WA",
      "municipality": "Harrismith",
      "localCode": "A05"
    },
    {
      "ident": "AU-0007",
      "name": "Kulin Airport",
      "type": "small_airport",
      "latitudeDeg": -32.6721992493,
      "longitudeDeg": 118.168998718,
      "elevationFt": 1000,
      "region": "AU-WA",
      "localCode": "A06"
    },
    {
      "ident": "AU-0009",
      "name": "Pinjarra North Airstrip",
      "type": "small_airport",
      "latitudeDeg": -32.5803985596,
      "longitudeDeg": 115.885002136,
      "region": "AU-WA",
      "municipality": "Pinjarra",
      "localCode": "A10"
    },
    {
      "ident": "AU-0010",
      "name": "Pinjarra Skydiving Airstrip",
      "type": "small_airport",
      "latitudeDeg": -32.66652,
      "longitudeDeg": 115.881745,
      "region": "AU-WA",
      "municipality": "Pinjarra",
      "localCode": "A11"
    },
    {
      "ident": "AU-0011",
      "name": "Wheeler Field",
      "type": "small_airport",
      "latitudeDeg": -32.7874909969,
      "longitudeDeg": 115.789482594,
      "region": "AU-WA",
      "localCode": "A12"
    },
    {
      "ident": "AU-0012",
      "name": "Lake Clifton Airstrip",
      "type": "small_airport",
      "latitudeDeg": -32.7909355164,
      "longitudeDeg": 115.670883179,
      "elevationFt": 11,
      "region": "AU-WA",
      "municipality": "Lake Clifton",
      "localCode": "A13"
    },
    {
      "ident": "AU-0013",
      "name": "Between Lakes Private Airstrip",
      "type": "small_airport",
      "latitudeDeg": -32.849998474121094,
      "longitudeDeg": 115.63999938964844,
      "region": "AU-WA"
    },
    {
      "ident": "AU-0014",
      "name": "Abrolhos East Wallabi Island Airport",
      "type": "small_airport",
      "latitudeDeg": -28.43785,
      "longitudeDeg": 113.735583333,
      "region": "AU-WA",
      "municipality": "Abrolhos",
      "localCode": "A15"
    },
    {
      "ident": "AU-0015",
      "name": "Bremer Bay Airport",
      "type": "small_airport",
      "latitudeDeg": -34.380561828599994,
      "longitudeDeg": 119.331947327,
      "elevationFt": 100,
      "region": "AU-WA",
      "municipality": "Bremer Bay",
      "localCode": "A17"
    },
    {
      "ident": "AU-0016",
      "name": "Middlebrook Station Scone Airstrip",
      "type": "small_airport",
      "latitudeDeg": -31.9711685181,
      "longitudeDeg": 150.811477661,
      "elevationFt": 900,
      "region": "AU-NSW",
      "municipality": "Middlebrook Station",
      "localCode": "A18"
    },
    {
      "ident": "AU-0017",
      "name": "Lily Dutch Windmill Airstrip",
      "type": "small_airport",
      "latitudeDeg": -34.2250022888,
      "longitudeDeg": 118.216148376,
      "elevationFt": 655,
      "region": "AU-WA",
      "localCode": "A19"
    },
    {
      "ident": "AU-0018",
      "name": "Preston Field - Blair Howe",
      "type": "small_airport",
      "latitudeDeg": -33.022077,
      "longitudeDeg": 115.702204,
      "elevationFt": 20,
      "region": "AU-WA",
      "gpsCode": "YPFL",
      "localCode": "A21"
    },
    {
      "ident": "AU-0019",
      "name": "Avoca Airport",
      "type": "small_airport",
      "latitudeDeg": -41.781700134277344,
      "longitudeDeg": 147.7194061279297,
      "elevationFt": 700,
      "region": "AU-TAS",
      "municipality": "Avoca"
    },
    {
      "ident": "AU-0020",
      "name": "Kukerin",
      "type": "small_airport",
      "latitudeDeg": -33.17490005493164,
      "longitudeDeg": 118.08499908447266,
      "elevationFt": 850,
      "region": "AU-WA",
      "municipality": "Kukerin WA"
    },
    {
      "ident": "AU-0021",
      "name": "Karijini National Park",
      "type": "small_airport",
      "latitudeDeg": -22.487101,
      "longitudeDeg": 118.468002,
      "elevationFt": 2325,
      "region": "AU-WA"
    },
    {
      "ident": "AU-0022",
      "name": "Cardabia Homestead Airstrip",
      "type": "small_airport",
      "latitudeDeg": -23.106024,
      "longitudeDeg": 113.805229,
      "elevationFt": 5,
      "region": "AU-WA",
      "municipality": "Lyndon"
    },
    {
      "ident": "AU-0023",
      "name": "Woodbury Airfield",
      "type": "small_airport",
      "latitudeDeg": -42.162421,
      "longitudeDeg": 147.45011,
      "elevationFt": 713,
      "region": "AU-TAS",
      "municipality": "Woodbury",
      "gpsCode": "YWOD"
    },
    {
      "ident": "AU-0024",
      "name": "Port Fairy",
      "type": "small_airport",
      "latitudeDeg": -38.36196517944336,
      "longitudeDeg": 142.26422119140625,
      "elevationFt": 10,
      "region": "AU-VIC"
    },
    {
      "ident": "AU-0025",
      "name": "Northcliffe Airstrip",
      "type": "small_airport",
      "latitudeDeg": -34.660026,
      "longitudeDeg": 116.140803,
      "region": "AU-WA",
      "municipality": "Boorara Brook"
    },
    {
      "ident": "AU-0026",
      "name": "Yuin Station",
      "type": "small_airport",
      "latitudeDeg": -27.983333587646484,
      "longitudeDeg": 116.03333282470703,
      "elevationFt": 970,
      "region": "AU-WA"
    },
    {
      "ident": "AU-0027",
      "name": "Boobyalla Airfield",
      "type": "small_airport",
      "latitudeDeg": -40.89821,
      "longitudeDeg": 147.86132,
      "elevationFt": 50,
      "region": "AU-TAS",
      "municipality": "Dorset"
    },
    {
      "ident": "AU-0028",
      "name": "Moonambel Airfield",
      "type": "small_airport",
      "latitudeDeg": -36.9716682434082,
      "longitudeDeg": 143.28611755371094,
      "elevationFt": 1100,
      "region": "AU-VIC"
    },
    {
      "ident": "AU-0029",
      "name": "Stirling Range Retreat",
      "type": "small_airport",
      "latitudeDeg": -34.312400817871094,
      "longitudeDeg": 118.18599700927734,
      "region": "AU-WA"
    },
    {
      "ident": "AU-0030",
      "name": "Frankland Valley Vineyard Airport",
      "type": "small_airport",
      "latitudeDeg": -34.347698,
      "longitudeDeg": 116.952003,
      "elevationFt": 825,
      "region": "AU-WA",
      "municipality": "Frankland River"
    },
    {
      "ident": "AU-0032",
      "name": "Tumbarumba Airport",
      "type": "small_airport",
      "latitudeDeg": -35.762604,
      "longitudeDeg": 147.886885,
      "elevationFt": 1993,
      "region": "AU-NSW",
      "municipality": "Tumbarumba"
    },
    {
      "ident": "AU-0033",
      "name": "Tardun Christian Brothers airfield",
      "type": "small_airport",
      "latitudeDeg": -28.70870018005371,
      "longitudeDeg": 115.8176498413086,
      "region": "AU-WA"
    },
    {
      "ident": "AU-0037",
      "name": "Glentromie Airstrip",
      "type": "small_airport",
      "latitudeDeg": -30.91983,
      "longitudeDeg": 116.234949,
      "elevationFt": 768,
      "region": "AU-WA",
      "municipality": "Glentromie"
    },
    {
      "ident": "AU-0038",
      "name": "Abrolhos North Island",
      "type": "small_airport",
      "latitudeDeg": -28.299816666699996,
      "longitudeDeg": 113.5958,
      "elevationFt": 1,
      "region": "AU-WA",
      "gpsCode": "YNTI"
    },
    {
      "ident": "AU-0039",
      "name": "Abrolhos Island",
      "type": "small_airport",
      "latitudeDeg": -28.4754062982,
      "longitudeDeg": 113.689184189,
      "region": "AU-WA"
    },
    {
      "ident": "AU-0040",
      "name": "Kilcoy Airfield",
      "type": "small_airport",
      "latitudeDeg": -26.971128,
      "longitudeDeg": 152.566575,
      "region": "AU-QLD",
      "municipality": "Kilcoy"
    },
    {
      "ident": "AU-0041",
      "name": "Maitraya Resort Airstrip",
      "type": "small_airport",
      "latitudeDeg": -34.987464,
      "longitudeDeg": 118.055563,
      "elevationFt": 200,
      "region": "AU-WA",
      "municipality": "Nanarup"
    },
    {
      "ident": "AU-0043",
      "name": "Chittering Airstrip",
      "type": "small_airport",
      "latitudeDeg": -31.5211908201,
      "longitudeDeg": 116.147289276,
      "region": "AU-WA",
      "municipality": "Chittering"
    },
    {
      "ident": "AU-0044",
      "name": "Trawalla Airport",
      "type": "small_airport",
      "latitudeDeg": -37.438747364399994,
      "longitudeDeg": 143.458957672,
      "elevationFt": 900,
      "region": "AU-VIC",
      "localCode": "YTWA"
    },
    {
      "ident": "AU-0045",
      "name": "Pomonal Airstrip",
      "type": "small_airport",
      "latitudeDeg": -37.231077,
      "longitudeDeg": 142.676517,
      "region": "AU-VIC",
      "localCode": "YPML"
    },
    {
      "ident": "AU-0046",
      "name": "Lake Eyre North",
      "type": "small_airport",
      "latitudeDeg": -28.416666666699996,
      "longitudeDeg": 137.3,
      "region": "AU-SA",
      "localCode": "LEYN"
    },
    {
      "ident": "AU-0047",
      "name": "Yardie Homestead",
      "type": "small_airport",
      "latitudeDeg": -21.881568,
      "longitudeDeg": 114.00944,
      "region": "AU-WA",
      "municipality": "Exmouth"
    },
    {
      "ident": "AU-0048",
      "name": "Kulin Bush Races Strip",
      "type": "small_airport",
      "latitudeDeg": -32.664444444400004,
      "longitudeDeg": 118.310833333,
      "elevationFt": 950,
      "region": "AU-WA",
      "municipality": "Kulin"
    },
    {
      "ident": "AU-0049",
      "name": "Kooringal Airstrip",
      "type": "small_airport",
      "latitudeDeg": -27.3458333333,
      "longitudeDeg": 153.425833333,
      "elevationFt": 25,
      "region": "AU-QLD"
    },
    {
      "ident": "AU-0050",
      "name": "Huntfield Airfield",
      "type": "small_airport",
      "latitudeDeg": -35.1725454513,
      "longitudeDeg": 138.493609428,
      "region": "AU-SA",
      "municipality": "Morphett Vale",
      "localCode": "5HUN"
    },
    {
      "ident": "AU-0052",
      "name": "Lake Omeo Dry Lake Ultralightport",
      "type": "small_airport",
      "latitudeDeg": -36.9617573795,
      "longitudeDeg": 147.672729492,
      "region": "AU-VIC"
    },
    {
      "ident": "AU-0053",
      "name": "Snowy Range Airfield",
      "type": "small_airport",
      "latitudeDeg": -37.3485734147,
      "longitudeDeg": 146.766046286,
      "elevationFt": 5200,
      "region": "AU-VIC"
    },
    {
      "ident": "AU-0054",
      "name": "Delatite Airstrip",
      "type": "small_airport",
      "latitudeDeg": -37.145053,
      "longitudeDeg": 146.159431,
      "elevationFt": 1164,
      "region": "AU-VIC",
      "municipality": "Delatite"
    },
    {
      "ident": "AU-0060",
      "name": "Miralwyn Airport",
      "type": "small_airport",
      "latitudeDeg": -30.149,
      "longitudeDeg": 147.327,
      "region": "AU-NSW"
    },
    {
      "ident": "AU-0071",
      "name": "Sherlock Ultralight Airfield",
      "type": "small_airport",
      "latitudeDeg": -35.3202777778,
      "longitudeDeg": 139.792522222,
      "elevationFt": 58,
      "region": "AU-SA",
      "municipality": "Sherlock"
    },
    {
      "ident": "AU-0073",
      "name": "Warroora Station Airstrip",
      "type": "small_airport",
      "latitudeDeg": -23.47487,
      "longitudeDeg": 113.79925,
      "elevationFt": 35,
      "region": "AU-WA",
      "municipality": "Lyndon"
    },
    {
      "ident": "AU-0081",
      "name": "Lady Elliot Island Airstrip",
      "type": "small_airport",
      "latitudeDeg": -24.1129,
      "longitudeDeg": 152.7156,
      "elevationFt": 20,
      "region": "AU-QLD",
      "municipality": "Lady Elliot Island",
      "icaoCode": "YLTT",
      "iataCode": "LYT",
      "gpsCode": "YLTT"
    },
    {
      "ident": "AU-0085",
      "name": "Nambung Station Private Airstrip",
      "type": "small_airport",
      "latitudeDeg": -30.576795,
      "longitudeDeg": 115.235019,
      "elevationFt": 158,
      "region": "AU-WA",
      "municipality": "Nambung"
    },
    {
      "ident": "AU-0090",
      "name": "Dingo Airstrip",
      "type": "small_airport",
      "latitudeDeg": -23.655,
      "longitudeDeg": 149.338,
      "elevationFt": 441,
      "region": "AU-QLD",
      "municipality": "Dingo"
    },
    {
      "ident": "AU-0094",
      "name": "Toby's Gap Airstrip",
      "type": "small_airport",
      "latitudeDeg": -25.5887,
      "longitudeDeg": 153.0646,
      "elevationFt": 339,
      "region": "AU-QLD",
      "municipality": "Fraser Island"
    },
    {
      "ident": "AU-0105",
      "name": "Boggabilla Airstrip",
      "type": "small_airport",
      "latitudeDeg": -28.649343,
      "longitudeDeg": 150.344505,
      "elevationFt": 740,
      "region": "AU-NSW",
      "municipality": "Goondiwindi",
      "localCode": "BGAC"
    },
    {
      "ident": "AU-0106",
      "name": "Valley View",
      "type": "small_airport",
      "latitudeDeg": -28.699218,
      "longitudeDeg": 114.911043,
      "elevationFt": 800,
      "region": "AU-WA",
      "municipality": "Geraldton"
    },
    {
      "ident": "AU-0107",
      "name": "Midway",
      "type": "small_airport",
      "latitudeDeg": -32.672544,
      "longitudeDeg": 115.789526,
      "region": "AU-WA"
    },
    {
      "ident": "AU-0108",
      "name": "Wheeler Drome",
      "type": "small_airport",
      "latitudeDeg": -32.786914,
      "longitudeDeg": 115.910386,
      "region": "AU-WA"
    },
    {
      "ident": "AU-0109",
      "name": "Unknown Farm Strip",
      "type": "small_airport",
      "latitudeDeg": -33.094903,
      "longitudeDeg": 115.717181,
      "region": "AU-WA"
    },
    {
      "ident": "AU-0110",
      "name": "Murgenella Airstrip",
      "type": "small_airport",
      "latitudeDeg": -11.5494,
      "longitudeDeg": 132.9142,
      "elevationFt": 67,
      "region": "AU-NT",
      "municipality": "Murganella"
    },
    {
      "ident": "AU-0112",
      "name": "Aileron Airstrip",
      "type": "small_airport",
      "latitudeDeg": -22.652908,
      "longitudeDeg": 133.347244,
      "elevationFt": 2186,
      "region": "AU-NT",
      "municipality": "Anmatjere",
      "gpsCode": "YALR"
    },
    {
      "ident": "AU-0113",
      "name": "Overlander Airport",
      "type": "small_airport",
      "latitudeDeg": -26.407707,
      "longitudeDeg": 114.45385,
      "region": "AU-WA",
      "municipality": "Hamelin Pool"
    },
    {
      "ident": "AU-0114",
      "name": "Denman Farm Strip",
      "type": "small_airport",
      "latitudeDeg": -32.379816,
      "longitudeDeg": 150.695005,
      "region": "AU-NSW",
      "municipality": "Denman"
    },
    {
      "ident": "AU-0115",
      "name": "Swan Reach Airport",
      "type": "small_airport",
      "latitudeDeg": -34.556053,
      "longitudeDeg": 139.592156,
      "elevationFt": 36,
      "region": "AU-SA",
      "municipality": "Swan Reach",
      "gpsCode": "YSWR"
    },
    {
      "ident": "AU-0116",
      "name": "[Duplicate] Alcoota Station Airport",
      "type": "small_airport",
      "latitudeDeg": -22.801963,
      "longitudeDeg": 134.4036,
      "elevationFt": 1994,
      "region": "AU-NT",
      "municipality": "Anmatjere"
    },
    {
      "ident": "AU-0117",
      "name": "Balma Airfield",
      "type": "small_airport",
      "latitudeDeg": -13.247423,
      "longitudeDeg": 135.848699,
      "elevationFt": 37,
      "region": "AU-NT"
    },
    {
      "ident": "AU-0118",
      "name": "Ban Ban Airfield",
      "type": "small_airport",
      "latitudeDeg": -13.376886,
      "longitudeDeg": 131.495318,
      "elevationFt": 394,
      "region": "AU-NT",
      "municipality": "Ban Ban Springs"
    },
    {
      "ident": "AU-0119",
      "name": "Banka Banka Airstrip",
      "type": "small_airport",
      "latitudeDeg": -18.79853,
      "longitudeDeg": 134.039619,
      "elevationFt": 969,
      "region": "AU-NT",
      "municipality": "Tablelands"
    },
    {
      "ident": "AU-0120",
      "name": "Baygurrtji Airfield",
      "type": "small_airport",
      "latitudeDeg": -13.146384,
      "longitudeDeg": 135.817344,
      "region": "AU-NT"
    },
    {
      "ident": "AU-0121",
      "name": "Wright Field",
      "type": "small_airport",
      "latitudeDeg": -36.093359,
      "longitudeDeg": 143.782748,
      "elevationFt": 306,
      "region": "AU-VIC",
      "municipality": "Yando",
      "localCode": "YBOOR"
    },
    {
      "ident": "AU-0122",
      "name": "Birany Birany Airfield",
      "type": "small_airport",
      "latitudeDeg": -12.816959,
      "longitudeDeg": 136.471556,
      "elevationFt": 51,
      "region": "AU-NT"
    },
    {
      "ident": "AU-0123",
      "name": "Bullita Airfield",
      "type": "small_airport",
      "latitudeDeg": -16.119461,
      "longitudeDeg": 130.429044,
      "elevationFt": 372,
      "region": "AU-NT",
      "municipality": "Gregory"
    },
    {
      "ident": "AU-0124",
      "name": "Bunda Landing Ground",
      "type": "small_airport",
      "latitudeDeg": -17.996474,
      "longitudeDeg": 129.348671,
      "elevationFt": 1301,
      "region": "AU-NT",
      "municipality": "Bunda Station"
    },
    {
      "ident": "AU-0125",
      "name": "Chilla Well Landing Ground",
      "type": "small_airport",
      "latitudeDeg": -21.499888,
      "longitudeDeg": 130.961747,
      "elevationFt": 1612,
      "region": "AU-NT"
    },
    {
      "ident": "AU-0126",
      "name": "Cox River Landing Ground",
      "type": "small_airport",
      "latitudeDeg": -15.867686,
      "longitudeDeg": 134.558959,
      "elevationFt": 764,
      "region": "AU-NT",
      "municipality": "Arnold"
    },
    {
      "ident": "AU-0127",
      "name": "Crab Claw Island Landing Ground",
      "type": "small_airport",
      "latitudeDeg": -12.713254,
      "longitudeDeg": 130.622849,
      "elevationFt": 34,
      "region": "AU-NT",
      "municipality": "Bynoe"
    },
    {
      "ident": "AU-0128",
      "name": "Donydji Airport",
      "type": "small_airport",
      "latitudeDeg": -12.888913,
      "longitudeDeg": 135.466661,
      "elevationFt": 330,
      "region": "AU-NT",
      "municipality": "East Arnhem"
    },
    {
      "ident": "AU-0129",
      "name": "Manyallaluk Airport",
      "type": "small_airport",
      "latitudeDeg": -14.265449,
      "longitudeDeg": 132.82983,
      "elevationFt": 758,
      "region": "AU-NT",
      "municipality": "Eva Valley"
    },
    {
      "ident": "AU-0130",
      "name": "Finniss River Landing Ground",
      "type": "small_airport",
      "latitudeDeg": -12.872221,
      "longitudeDeg": 130.54513,
      "elevationFt": 31,
      "region": "AU-NT",
      "municipality": "Bynoe"
    },
    {
      "ident": "AU-0131",
      "name": "Fish River Landing Ground",
      "type": "small_airport",
      "latitudeDeg": -14.188069,
      "longitudeDeg": 130.881436,
      "elevationFt": 238,
      "region": "AU-NT",
      "municipality": "Tipperary"
    },
    {
      "ident": "AU-0141",
      "name": "Gerald Farm Airfield",
      "type": "small_airport",
      "latitudeDeg": -12.500167,
      "longitudeDeg": 130.765833,
      "elevationFt": 117,
      "region": "AU-NT",
      "localCode": "OZHIQ"
    },
    {
      "ident": "AU-0174",
      "name": "Derby Field",
      "type": "small_airport",
      "latitudeDeg": -36.6128,
      "longitudeDeg": 144.0186,
      "elevationFt": 461,
      "region": "AU-VIC",
      "municipality": "Bridgewater",
      "localCode": "YBRDE"
    },
    {
      "ident": "AU-0175",
      "name": "Rothwell Airfield",
      "type": "small_airport",
      "latitudeDeg": -37.916945,
      "longitudeDeg": 144.483743,
      "elevationFt": 298,
      "region": "AU-VIC",
      "municipality": "Little River",
      "localCode": "YRTH"
    },
    {
      "ident": "AU-0188",
      "name": "Strowan",
      "type": "small_airport",
      "latitudeDeg": -32.460996,
      "longitudeDeg": 150.861705,
      "elevationFt": 830,
      "region": "AU-NSW",
      "municipality": "Jerry Plains"
    },
    {
      "ident": "AU-0191",
      "name": "Dundee Beach Airport",
      "type": "small_airport",
      "latitudeDeg": -12.720112,
      "longitudeDeg": 130.361831,
      "elevationFt": 25,
      "region": "AU-NT",
      "municipality": "Dundee Beach"
    },
    {
      "ident": "AU-0192",
      "name": "Channel Point Airport",
      "type": "small_airport",
      "latitudeDeg": -13.15257,
      "longitudeDeg": 130.14333,
      "elevationFt": 80,
      "region": "AU-NT",
      "municipality": "Rakula"
    },
    {
      "ident": "AU-0193",
      "name": "Bulgul Airport",
      "type": "small_airport",
      "latitudeDeg": -13.10456,
      "longitudeDeg": 130.16128,
      "elevationFt": 121,
      "region": "AU-NT",
      "municipality": "Rakula"
    },
    {
      "ident": "AU-0194",
      "name": "Sabina Airport",
      "type": "small_airport",
      "latitudeDeg": -13.85902,
      "longitudeDeg": 129.93136,
      "elevationFt": 71,
      "region": "AU-NT",
      "municipality": "Nemarluk"
    },
    {
      "ident": "AU-0195",
      "name": "Nadirri Airport",
      "type": "small_airport",
      "latitudeDeg": -13.94685,
      "longitudeDeg": 129.77638,
      "elevationFt": 72,
      "region": "AU-NT",
      "municipality": "Thamarrurr"
    },
    {
      "ident": "AU-0196",
      "name": "Perrederr Airport",
      "type": "small_airport",
      "latitudeDeg": -14.02022,
      "longitudeDeg": 129.8218,
      "elevationFt": 69,
      "region": "AU-NT",
      "municipality": "Thamarrurr"
    },
    {
      "ident": "AU-0197",
      "name": "Yederr Airport",
      "type": "small_airport",
      "latitudeDeg": -14.02481,
      "longitudeDeg": 129.72806,
      "elevationFt": 46,
      "region": "AU-NT",
      "municipality": "Thamarrurr"
    },
    {
      "ident": "AU-0198",
      "name": "Fossil Head Airport",
      "type": "small_airport",
      "latitudeDeg": -14.54377,
      "longitudeDeg": 129.52652,
      "elevationFt": 102,
      "region": "AU-NT",
      "municipality": "Thamarrurr"
    },
    {
      "ident": "AU-0199",
      "name": "Wombungi Station Airport",
      "type": "small_airport",
      "latitudeDeg": -14.77569,
      "longitudeDeg": 131.04727,
      "elevationFt": 597,
      "region": "AU-NT",
      "municipality": "Bradshaw"
    },
    {
      "ident": "AU-0200",
      "name": "Digger's Rest Station Airport",
      "type": "small_airport",
      "latitudeDeg": -15.62331,
      "longitudeDeg": 128.06102,
      "elevationFt": 66,
      "region": "AU-WA",
      "municipality": "Durack"
    },
    {
      "ident": "AU-0201",
      "name": "Cygnet Bay Pearl Farm Airport",
      "type": "small_airport",
      "latitudeDeg": -16.44032,
      "longitudeDeg": 123.01758,
      "elevationFt": 92,
      "region": "AU-WA",
      "municipality": "Dampier Peninsula"
    },
    {
      "ident": "AU-0202",
      "name": "Arrow Pearling Base Airport",
      "type": "small_airport",
      "latitudeDeg": -16.947598,
      "longitudeDeg": 122.49758,
      "elevationFt": 16,
      "region": "AU-WA",
      "municipality": "Dampier Peninsula"
    },
    {
      "ident": "AU-0203",
      "name": "Meda Airport",
      "type": "small_airport",
      "latitudeDeg": -17.36042,
      "longitudeDeg": 123.99276,
      "elevationFt": 52,
      "region": "AU-WA",
      "municipality": "Meda"
    },
    {
      "ident": "AU-0205",
      "name": "Kynuna Town Strip (Glenagra)",
      "type": "small_airport",
      "latitudeDeg": -21.535126,
      "longitudeDeg": 141.838249,
      "elevationFt": 735,
      "region": "AU-QLD",
      "municipality": "Kynuna",
      "localCode": "YKYNU"
    },
    {
      "ident": "AU-0206",
      "name": "Minilya Airport",
      "type": "small_airport",
      "latitudeDeg": -23.80655,
      "longitudeDeg": 114.00853,
      "elevationFt": 49,
      "region": "AU-WA",
      "municipality": "Minilya"
    },
    {
      "ident": "AU-0208",
      "name": "Chuulangun Airport",
      "type": "small_airport",
      "latitudeDeg": -13.11818,
      "longitudeDeg": 143.00533,
      "elevationFt": 456,
      "region": "AU-QLD",
      "municipality": "Lockhart River"
    },
    {
      "ident": "AU-0209",
      "name": "Wyberba Airstrip",
      "type": "small_airport",
      "latitudeDeg": -28.847287,
      "longitudeDeg": 151.857834,
      "elevationFt": 2500,
      "region": "AU-QLD",
      "municipality": "Wyberba"
    },
    {
      "ident": "AU-0210",
      "name": "KESWICK ISLAND AIRSTRIP",
      "type": "small_airport",
      "latitudeDeg": -20.920538,
      "longitudeDeg": 149.422839,
      "elevationFt": 10,
      "region": "AU-QLD",
      "municipality": "KESWICK ISLAND"
    },
    {
      "ident": "AU-0211",
      "name": "Lundavra Private Airstrip",
      "type": "small_airport",
      "latitudeDeg": -28.026001,
      "longitudeDeg": 150.026486,
      "elevationFt": 100,
      "region": "AU-QLD",
      "municipality": "Lundavra"
    },
    {
      "ident": "AU-0212",
      "name": "Mount Walker airstrip",
      "type": "small_airport",
      "latitudeDeg": -27.76846,
      "longitudeDeg": 152.520597,
      "elevationFt": 2,
      "region": "AU-QLD",
      "municipality": "Mount Walker West QLD 4340"
    },
    {
      "ident": "AU-0213",
      "name": "mount archer",
      "type": "small_airport",
      "latitudeDeg": -26.973333,
      "longitudeDeg": 152.666745,
      "elevationFt": 50,
      "region": "AU-QLD",
      "municipality": "mount archer"
    },
    {
      "ident": "AU-0214",
      "name": "george lees airfield",
      "type": "small_airport",
      "latitudeDeg": -27.049228,
      "longitudeDeg": 151.274228,
      "elevationFt": 100,
      "region": "AU-QLD",
      "municipality": "Pirrinuan, QLD 4405"
    },
    {
      "ident": "AU-0215",
      "name": "Hall Airport",
      "type": "small_airport",
      "latitudeDeg": -35.144284,
      "longitudeDeg": 149.042952,
      "region": "AU-NSW",
      "municipality": "Wallaroo",
      "gpsCode": "YHAL"
    },
    {
      "ident": "AU-0216",
      "name": "FORESTVALE AIRSTRIP",
      "type": "small_airport",
      "latitudeDeg": -25.805775,
      "longitudeDeg": 147.953224,
      "region": "AU-QLD",
      "municipality": "FORESTVALE"
    },
    {
      "ident": "AU-0217",
      "name": "Dirranbandi",
      "type": "small_airport",
      "latitudeDeg": -28.98134,
      "longitudeDeg": 148.054848,
      "elevationFt": 568,
      "region": "AU-QLD",
      "municipality": "Dirranbandi"
    },
    {
      "ident": "AU-0219",
      "name": "Greenfield (Cootharaba) Airfield",
      "type": "small_airport",
      "latitudeDeg": -26.292993,
      "longitudeDeg": 152.961724,
      "elevationFt": 6,
      "region": "AU-QLD",
      "municipality": "Cootharaba"
    },
    {
      "ident": "AU-0223",
      "name": "Jimbour Homestead airstrip",
      "type": "small_airport",
      "latitudeDeg": -26.959998,
      "longitudeDeg": 151.235851,
      "elevationFt": 1115,
      "region": "AU-QLD",
      "municipality": "Jimbour"
    },
    {
      "ident": "AU-0224",
      "name": "frogs hollows airfield",
      "type": "small_airport",
      "latitudeDeg": -36.760549,
      "longitudeDeg": 149.804163,
      "elevationFt": 270,
      "region": "AU-NSW",
      "municipality": "Tathra"
    },
    {
      "ident": "AU-0225",
      "name": "WILMINGTON RESIDENTIAL AIRPARK",
      "type": "small_airport",
      "latitudeDeg": -32.635309,
      "longitudeDeg": 138.107157,
      "elevationFt": 1080,
      "region": "AU-SA",
      "municipality": "Wilmington"
    },
    {
      "ident": "AU-0226",
      "name": "Marulan (Tangryang) Airstrip",
      "type": "small_airport",
      "latitudeDeg": -34.734273,
      "longitudeDeg": 149.958315,
      "elevationFt": 2300,
      "region": "AU-NSW",
      "municipality": "Marulan"
    },
    {
      "ident": "AU-0227",
      "name": "Pipers Airfield",
      "type": "small_airport",
      "latitudeDeg": -33.377547,
      "longitudeDeg": 149.519634,
      "region": "AU-NSW"
    },
    {
      "ident": "AU-0228",
      "name": "2nd Crookwell Airfield",
      "type": "small_airport",
      "latitudeDeg": -34.493893,
      "longitudeDeg": 149.462128,
      "region": "AU-NSW",
      "municipality": "Crookwell"
    },
    {
      "ident": "AU-0229",
      "name": "Limekilns airfield",
      "type": "small_airport",
      "latitudeDeg": -33.267613,
      "longitudeDeg": 149.725885,
      "region": "AU-NSW",
      "municipality": "Limekilns"
    },
    {
      "ident": "AU-0230",
      "name": "bungebah airfield",
      "type": "small_airport",
      "latitudeDeg": -31.979077,
      "longitudeDeg": 149.794765,
      "region": "AU-NSW"
    },
    {
      "ident": "AU-0231",
      "name": "Narrandool Bush Strip",
      "type": "small_airport",
      "latitudeDeg": -29.252257,
      "longitudeDeg": 147.880182,
      "region": "AU-NSW",
      "municipality": "Narrandool"
    },
    {
      "ident": "AU-0232",
      "name": "WeeWaa 2nd Airstrip",
      "type": "small_airport",
      "latitudeDeg": -30.252173,
      "longitudeDeg": 149.451141,
      "region": "AU-NSW",
      "municipality": "WeeWaa"
    },
    {
      "ident": "AU-0233",
      "name": "Croppa Creek airstrip",
      "type": "small_airport",
      "latitudeDeg": -29.114263,
      "longitudeDeg": 150.408883,
      "region": "AU-NSW",
      "municipality": "Croppa Creek"
    },
    {
      "ident": "AU-0234",
      "name": "Texas Airstrip",
      "type": "small_airport",
      "latitudeDeg": -28.834683,
      "longitudeDeg": 151.15208,
      "region": "AU-QLD",
      "municipality": "Texas"
    },
    {
      "ident": "AU-0235",
      "name": "Ellinthorp Airstrip",
      "type": "small_airport",
      "latitudeDeg": -28.054948,
      "longitudeDeg": 151.931144,
      "region": "AU-QLD",
      "municipality": "Ellinthorp"
    },
    {
      "ident": "AU-0236",
      "name": "private airstrip agnes waters",
      "type": "small_airport",
      "latitudeDeg": -24.274705,
      "longitudeDeg": 151.778913,
      "region": "AU-QLD",
      "municipality": "private airstrip agnes waters"
    },
    {
      "ident": "AU-0237",
      "name": "private airfield agnes waters",
      "type": "small_airport",
      "latitudeDeg": -24.238316,
      "longitudeDeg": 151.862394,
      "region": "AU-QLD",
      "municipality": "agnes waters"
    },
    {
      "ident": "AU-0238",
      "name": "private runway agnes waters",
      "type": "small_airport",
      "latitudeDeg": -24.29885,
      "longitudeDeg": 151.785468,
      "region": "AU-QLD",
      "municipality": "agnes waters"
    },
    {
      "ident": "AU-0239",
      "name": "Samuel Hill Airfield ( Danger Zone RAAF Shoal water bay)",
      "type": "small_airport",
      "latitudeDeg": -22.740486,
      "longitudeDeg": 150.654016,
      "elevationFt": 120,
      "region": "AU-QLD",
      "municipality": "Shoal Water bay",
      "gpsCode": "YSMH"
    },
    {
      "ident": "AU-0240",
      "name": "The Plains Airfield Shoal water bay RAAF",
      "type": "small_airport",
      "latitudeDeg": -22.76162,
      "longitudeDeg": 150.346527,
      "region": "AU-QLD",
      "municipality": "Shoal Waterbay RAAF"
    },
    {
      "ident": "AU-0241",
      "name": "Saint Lawrence",
      "type": "small_airport",
      "latitudeDeg": -22.375139,
      "longitudeDeg": 149.459767,
      "region": "AU-QLD",
      "municipality": "Saint Lawrence"
    },
    {
      "ident": "AU-0242",
      "name": "Oaky Creek Airfield",
      "type": "small_airport",
      "latitudeDeg": -23.242273,
      "longitudeDeg": 148.355534,
      "region": "AU-QLD",
      "municipality": "Oaky Creek"
    },
    {
      "ident": "AU-0243",
      "name": "Midge Point",
      "type": "small_airport",
      "latitudeDeg": -20.625354,
      "longitudeDeg": 148.677163,
      "region": "AU-QLD",
      "municipality": "Midge Point"
    },
    {
      "ident": "AU-0244",
      "name": "temple island airstrip",
      "type": "small_airport",
      "latitudeDeg": -21.601298,
      "longitudeDeg": 149.491868,
      "region": "AU-QLD",
      "municipality": "temple island"
    },
    {
      "ident": "AU-0245",
      "name": "Nobbys Creek private Strip",
      "type": "small_airport",
      "latitudeDeg": -28.29586,
      "longitudeDeg": 153.326306,
      "region": "AU-NSW",
      "municipality": "Nobbys Creek"
    },
    {
      "ident": "AU-0252",
      "name": "airlie private strip",
      "type": "small_airport",
      "latitudeDeg": -33.594282,
      "longitudeDeg": 149.544997,
      "region": "AU-NSW",
      "municipality": "airlie"
    },
    {
      "ident": "AU-0253",
      "name": "Hazelton Private Airstrip",
      "type": "small_airport",
      "latitudeDeg": -27.047737,
      "longitudeDeg": 153.05131,
      "region": "AU-QLD",
      "municipality": "Ningi"
    },
    {
      "ident": "AU-0254",
      "name": "Tabragalba Homestead private strip",
      "type": "small_airport",
      "latitudeDeg": -28.011066,
      "longitudeDeg": 153.06839,
      "region": "AU-QLD",
      "municipality": "Tabragalba"
    },
    {
      "ident": "AU-0255",
      "name": "Gulgong Aero Park Airport",
      "type": "small_airport",
      "latitudeDeg": -32.298696,
      "longitudeDeg": 149.559567,
      "elevationFt": 1443,
      "region": "AU-NSW",
      "municipality": "Gulgong",
      "gpsCode": "YGGG"
    },
    {
      "ident": "AU-0256",
      "name": "Wyaldra Airstrip",
      "type": "small_airport",
      "latitudeDeg": -32.295939,
      "longitudeDeg": 149.551542,
      "elevationFt": 1442,
      "region": "AU-NSW",
      "municipality": "Wyaldra"
    },
    {
      "ident": "AU-0257",
      "name": "Ravenswood Gold mine",
      "type": "small_airport",
      "latitudeDeg": -20.101841,
      "longitudeDeg": 146.908643,
      "region": "AU-QLD",
      "municipality": "Ravenswood"
    },
    {
      "ident": "AU-0258",
      "name": "Uralla Private strip?",
      "type": "small_airport",
      "latitudeDeg": -30.671176,
      "longitudeDeg": 151.488333,
      "region": "AU-NSW",
      "municipality": "Uralla"
    },
    {
      "ident": "AU-0259",
      "name": "Lockhart Airstrip",
      "type": "small_airport",
      "latitudeDeg": -35.205339,
      "longitudeDeg": 146.728742,
      "region": "AU-NSW",
      "municipality": "Lockhart"
    },
    {
      "ident": "AU-0260",
      "name": "Berrigan Airstrip",
      "type": "small_airport",
      "latitudeDeg": -35.684209,
      "longitudeDeg": 145.814753,
      "region": "AU-NSW",
      "municipality": "Berrigan"
    },
    {
      "ident": "AU-0261",
      "name": "Yarraden station airstrip",
      "type": "small_airport",
      "latitudeDeg": -14.303383,
      "longitudeDeg": 143.310943,
      "region": "AU-QLD",
      "municipality": "Yarraden"
    },
    {
      "ident": "AU-0262",
      "name": "Coen airstrip",
      "type": "small_airport",
      "latitudeDeg": -13.956517,
      "longitudeDeg": 143.182068,
      "region": "AU-QLD",
      "municipality": "Coen"
    },
    {
      "ident": "AU-0263",
      "name": "Mapoon Airstrip",
      "type": "small_airport",
      "latitudeDeg": -12.049793,
      "longitudeDeg": 141.906173,
      "region": "AU-QLD",
      "municipality": "Mapoon"
    },
    {
      "ident": "AU-0264",
      "name": "Skardon River Airport",
      "type": "small_airport",
      "latitudeDeg": -11.866259,
      "longitudeDeg": 142.008762,
      "elevationFt": 29,
      "region": "AU-QLD",
      "municipality": "Mapoon",
      "icaoCode": "YSKR",
      "gpsCode": "YSKR"
    },
    {
      "ident": "AU-0265",
      "name": "Cullulleraine airstrip private",
      "type": "small_airport",
      "latitudeDeg": -34.190506,
      "longitudeDeg": 141.615314,
      "region": "AU-VIC",
      "municipality": "Cullulleraine"
    },
    {
      "ident": "AU-0266",
      "name": "Neds Corner Airport",
      "type": "small_airport",
      "latitudeDeg": -34.146405,
      "longitudeDeg": 141.334734,
      "region": "AU-VIC",
      "municipality": "Neds Corner"
    },
    {
      "ident": "AU-0267",
      "name": "Hindmarsh Island private strip",
      "type": "small_airport",
      "latitudeDeg": -35.50416,
      "longitudeDeg": 138.850708,
      "region": "AU-SA",
      "municipality": "Hindmarsh Island"
    },
    {
      "ident": "AU-0268",
      "name": "Hindmarsh International Airport",
      "type": "small_airport",
      "latitudeDeg": -35.528965,
      "longitudeDeg": 138.864355,
      "region": "AU-SA",
      "municipality": "Hindmarsh"
    },
    {
      "ident": "AU-0269",
      "name": "Bramwell Tourist Park airstrip",
      "type": "small_airport",
      "latitudeDeg": -12.139613,
      "longitudeDeg": 142.614233,
      "region": "AU-QLD",
      "municipality": "Bramwell Tourist Park",
      "gpsCode": "YBWL"
    },
    {
      "ident": "AU-0270",
      "name": "WENLOCK AIRSTRIP",
      "type": "small_airport",
      "latitudeDeg": -12.187355,
      "longitudeDeg": 142.517052,
      "region": "AU-QLD",
      "municipality": "wenlock"
    },
    {
      "ident": "AU-0271",
      "name": "Arrabury Homestead",
      "type": "small_airport",
      "latitudeDeg": -26.758793,
      "longitudeDeg": 141.027031,
      "region": "AU-QLD",
      "municipality": "Arrabury Homestead"
    },
    {
      "ident": "AU-0272",
      "name": "Planet Downs OS",
      "type": "small_airport",
      "latitudeDeg": -25.872662,
      "longitudeDeg": 141.116788,
      "region": "AU-QLD",
      "municipality": "Planet downs OS"
    },
    {
      "ident": "AU-0273",
      "name": "Glen Aplin private strip",
      "type": "small_airport",
      "latitudeDeg": -28.730358,
      "longitudeDeg": 151.858134,
      "region": "AU-QLD",
      "municipality": "Glen Aplin"
    },
    {
      "ident": "AU-0274",
      "name": "Landsborough Airport",
      "type": "small_airport",
      "latitudeDeg": -26.823056,
      "longitudeDeg": 152.977538,
      "region": "AU-QLD",
      "municipality": "Landsborough"
    },
    {
      "ident": "AU-0275",
      "name": "Glenroy private strip",
      "type": "small_airport",
      "latitudeDeg": -23.067769,
      "longitudeDeg": 149.718375,
      "region": "AU-QLD",
      "municipality": "Glenroy"
    },
    {
      "ident": "AU-0276",
      "name": "cape cloucester airstrip    300m length",
      "type": "small_airport",
      "latitudeDeg": -20.091947,
      "longitudeDeg": 148.443564,
      "region": "AU-QLD",
      "municipality": "Cape Cloucester"
    },
    {
      "ident": "AU-0277",
      "name": "Burraga Airstrip no.1",
      "type": "small_airport",
      "latitudeDeg": -33.950427,
      "longitudeDeg": 149.564631,
      "region": "AU-NSW",
      "municipality": "Burraga"
    },
    {
      "ident": "AU-0278",
      "name": "Burraga Airstrip no.2",
      "type": "small_airport",
      "latitudeDeg": -33.939693,
      "longitudeDeg": 149.495258,
      "region": "AU-NSW",
      "municipality": "Burraga"
    },
    {
      "ident": "AU-0279",
      "name": "Mataranka township airport",
      "type": "small_airport",
      "latitudeDeg": -14.924093,
      "longitudeDeg": 133.061728,
      "region": "AU-NT",
      "municipality": "Mataranka"
    },
    {
      "ident": "AU-0280",
      "name": "Emungalan airstrip",
      "type": "small_airport",
      "latitudeDeg": -14.432186,
      "longitudeDeg": 132.237228,
      "region": "AU-NT",
      "municipality": "Emungalan"
    },
    {
      "ident": "AU-0281",
      "name": "Katherine North Airstrip",
      "type": "small_airport",
      "latitudeDeg": -14.446135,
      "longitudeDeg": 132.273046,
      "region": "AU-NT",
      "municipality": "Katherine North"
    },
    {
      "ident": "AU-0282",
      "name": "Manbulloo Airstrip",
      "type": "small_airport",
      "latitudeDeg": -14.560116,
      "longitudeDeg": 132.230136,
      "region": "AU-NT",
      "municipality": "Manbulloo"
    },
    {
      "ident": "AU-0283",
      "name": "Venn airstrip",
      "type": "small_airport",
      "latitudeDeg": -14.576315,
      "longitudeDeg": 132.505546,
      "region": "AU-NT",
      "municipality": "Venn"
    },
    {
      "ident": "AU-0284",
      "name": "Elsey private airstrip",
      "type": "small_airport",
      "latitudeDeg": -14.912628,
      "longitudeDeg": 133.119364,
      "region": "AU-NT",
      "municipality": "Elsey"
    },
    {
      "ident": "AU-0285",
      "name": "Elsey private airstrip no. 2",
      "type": "small_airport",
      "latitudeDeg": -14.985664,
      "longitudeDeg": 133.085225,
      "region": "AU-NT",
      "municipality": "Elsey"
    },
    {
      "ident": "AU-0286",
      "name": "Wuyagiba Airport",
      "type": "small_airport",
      "latitudeDeg": -14.616433,
      "longitudeDeg": 135.489707,
      "region": "AU-NT",
      "municipality": "Wuyagiba"
    },
    {
      "ident": "AU-0287",
      "name": "Mumpumampu Airport",
      "type": "small_airport",
      "latitudeDeg": -14.385633,
      "longitudeDeg": 135.332251,
      "region": "AU-NT",
      "municipality": "Mumpumampu"
    },
    {
      "ident": "AU-0288",
      "name": "Ngilipitji  Airport",
      "type": "small_airport",
      "latitudeDeg": -13.489209,
      "longitudeDeg": 135.543222,
      "region": "AU-NT",
      "municipality": "Ngilipitji"
    },
    {
      "ident": "AU-0289",
      "name": "Dhuruputjpl Airport",
      "type": "small_airport",
      "latitudeDeg": -13.054234,
      "longitudeDeg": 136.170551,
      "region": "AU-NT",
      "municipality": "Dhuruputjpl"
    },
    {
      "ident": "AU-0290",
      "name": "Gunyangara Airstrip",
      "type": "small_airport",
      "latitudeDeg": -12.223002,
      "longitudeDeg": 136.705412,
      "region": "AU-NT",
      "municipality": "Gunyangara"
    },
    {
      "ident": "AU-0291",
      "name": "Buymarr Airport",
      "type": "small_airport",
      "latitudeDeg": -12.689905,
      "longitudeDeg": 136.63202,
      "region": "AU-NT",
      "municipality": "Buymarr"
    },
    {
      "ident": "AU-0292",
      "name": "Yinyikay airport",
      "type": "small_airport",
      "latitudeDeg": -12.212477,
      "longitudeDeg": 136.234987,
      "region": "AU-NT",
      "municipality": "Yinyikay"
    },
    {
      "ident": "AU-0293",
      "name": "Rorruwuy airport",
      "type": "small_airport",
      "latitudeDeg": -12.192806,
      "longitudeDeg": 136.293562,
      "region": "AU-NT",
      "municipality": "Rorruwuy"
    },
    {
      "ident": "AU-0294",
      "name": "Matamata airport",
      "type": "small_airport",
      "latitudeDeg": -12.077239,
      "longitudeDeg": 136.270361,
      "region": "AU-NT",
      "municipality": "Matamata"
    },
    {
      "ident": "AU-0295",
      "name": "Barrkira Airport",
      "type": "small_airport",
      "latitudeDeg": -12.008604,
      "longitudeDeg": 136.469199,
      "region": "AU-NT",
      "municipality": "Barrkira"
    },
    {
      "ident": "AU-0296",
      "name": "Dallachy(Cardwell) Aerodrome",
      "type": "small_airport",
      "latitudeDeg": -18.178578,
      "longitudeDeg": 145.950061,
      "region": "AU-QLD",
      "municipality": "Dallachy(Cardwell)"
    },
    {
      "ident": "AU-0297",
      "name": "Koah Airport",
      "type": "small_airport",
      "latitudeDeg": -16.82674,
      "longitudeDeg": 145.520912,
      "region": "AU-QLD",
      "municipality": "Koah"
    },
    {
      "ident": "AU-0298",
      "name": "Ace Aerodrome Starke Field",
      "type": "small_airport",
      "latitudeDeg": -19.585231,
      "longitudeDeg": 146.779948,
      "elevationFt": 276,
      "region": "AU-QLD",
      "municipality": "Woodstock"
    },
    {
      "ident": "AU-0299",
      "name": "Home Hill Aerodrome",
      "type": "small_airport",
      "latitudeDeg": -19.726176,
      "longitudeDeg": 147.350591,
      "region": "AU-QLD",
      "municipality": "Osborne 4806"
    },
    {
      "ident": "AU-0300",
      "name": "Johnnycake Homestead",
      "type": "small_airport",
      "latitudeDeg": -20.259135,
      "longitudeDeg": 147.32446,
      "region": "AU-QLD",
      "municipality": "Bogie"
    },
    {
      "ident": "AU-0301",
      "name": "Mount Coolon Homestead Airfield",
      "type": "small_airport",
      "latitudeDeg": -21.092297,
      "longitudeDeg": 146.865913,
      "region": "AU-QLD",
      "municipality": "Mount Coolon"
    },
    {
      "ident": "AU-0302",
      "name": "Newlands Coalmine Airport",
      "type": "small_airport",
      "latitudeDeg": -21.172446,
      "longitudeDeg": 147.908808,
      "region": "AU-QLD",
      "municipality": "Newlands 4804"
    },
    {
      "ident": "AU-0303",
      "name": "Newlands Coalmine Airport no.2",
      "type": "small_airport",
      "latitudeDeg": -21.338405,
      "longitudeDeg": 147.901663,
      "region": "AU-QLD",
      "municipality": "Newlands 4804"
    },
    {
      "ident": "AU-0304",
      "name": "Coppabella Airport",
      "type": "small_airport",
      "latitudeDeg": -21.896128,
      "longitudeDeg": 148.370861,
      "region": "AU-QLD",
      "municipality": "Coppabella"
    },
    {
      "ident": "AU-0305",
      "name": "Tierawoomba Homestead Airport",
      "type": "small_airport",
      "latitudeDeg": -21.855211,
      "longitudeDeg": 149.032541,
      "region": "AU-QLD",
      "municipality": "Oxford 4742"
    },
    {
      "ident": "AU-0306",
      "name": "Woorabinda Airport",
      "type": "small_airport",
      "latitudeDeg": -24.115419,
      "longitudeDeg": 149.476214,
      "region": "AU-QLD",
      "municipality": "Woorabinda"
    },
    {
      "ident": "AU-0307",
      "name": "Murgon Airport",
      "type": "small_airport",
      "latitudeDeg": -26.25309,
      "longitudeDeg": 151.930258,
      "elevationFt": 1019,
      "region": "AU-QLD",
      "municipality": "Murgon",
      "gpsCode": "YMRG"
    },
    {
      "ident": "AU-0308",
      "name": "Mudhamul Airport",
      "type": "small_airport",
      "latitudeDeg": -12.160464,
      "longitudeDeg": 136.174445,
      "region": "AU-NT",
      "municipality": "Mudhamul"
    },
    {
      "ident": "AU-0309",
      "name": "Henty Airport",
      "type": "small_airport",
      "latitudeDeg": -35.50682,
      "longitudeDeg": 146.997025,
      "region": "AU-NSW",
      "municipality": "Henty"
    },
    {
      "ident": "AU-0310",
      "name": "HentyField Days Site Airport",
      "type": "small_airport",
      "latitudeDeg": -35.507083,
      "longitudeDeg": 147.109547,
      "region": "AU-NSW",
      "municipality": "Henty"
    },
    {
      "ident": "AU-0311",
      "name": "Wallaroo Private Airstrip",
      "type": "small_airport",
      "latitudeDeg": -35.169086,
      "longitudeDeg": 148.96244,
      "elevationFt": 1686,
      "region": "AU-NSW",
      "municipality": "Wallaroo"
    },
    {
      "ident": "AU-0312",
      "name": "Southern tablelands gliding club",
      "type": "small_airport",
      "latitudeDeg": -34.688468,
      "longitudeDeg": 149.892557,
      "region": "AU-NSW",
      "municipality": "Goulburn"
    },
    {
      "ident": "AU-0313",
      "name": "Worral Creek private strip",
      "type": "small_airport",
      "latitudeDeg": -28.616219,
      "longitudeDeg": 149.255705,
      "region": "AU-QLD",
      "municipality": "Worral Creek"
    },
    {
      "ident": "AU-0314",
      "name": "Boomi airport",
      "type": "small_airport",
      "latitudeDeg": -28.588784,
      "longitudeDeg": 149.578506,
      "region": "AU-NSW",
      "municipality": "Boomi"
    },
    {
      "ident": "AU-0315",
      "name": "North Talwood Airfield",
      "type": "small_airport",
      "latitudeDeg": -28.494205,
      "longitudeDeg": 149.45643,
      "region": "AU-NSW",
      "municipality": "North Talwood"
    },
    {
      "ident": "AU-0316",
      "name": "Parkes private strip",
      "type": "small_airport",
      "latitudeDeg": -32.984213,
      "longitudeDeg": 148.245259,
      "region": "AU-NSW",
      "municipality": "Parkes"
    },
    {
      "ident": "AU-0317",
      "name": "Grange View homestead airfield",
      "type": "small_airport",
      "latitudeDeg": -32.439399,
      "longitudeDeg": 148.884431,
      "region": "AU-NSW",
      "municipality": "Maryvale"
    },
    {
      "ident": "AU-0318",
      "name": "Gunnedah Airfield   SES Only",
      "type": "small_airport",
      "latitudeDeg": -31.04354,
      "longitudeDeg": 150.284623,
      "region": "AU-NSW",
      "municipality": "Gunnedah"
    },
    {
      "ident": "AU-0319",
      "name": "Attunga Private airstrp",
      "type": "small_airport",
      "latitudeDeg": -30.92789,
      "longitudeDeg": 150.801727,
      "region": "AU-NSW",
      "municipality": "Attunga"
    },
    {
      "ident": "AU-0320",
      "name": "Manilla Paragliding",
      "type": "small_airport",
      "latitudeDeg": -30.678202,
      "longitudeDeg": 150.649547,
      "region": "AU-NSW",
      "municipality": "Manilla"
    },
    {
      "ident": "AU-0321",
      "name": "Bluewater park Airstrip",
      "type": "small_airport",
      "latitudeDeg": -19.187341,
      "longitudeDeg": 146.49475,
      "elevationFt": 110,
      "region": "AU-QLD",
      "municipality": "Bluewater park Airstrip",
      "gpsCode": "YBLP"
    },
    {
      "ident": "AU-0322",
      "name": "Wooloomanata Airfield",
      "type": "small_airport",
      "latitudeDeg": -37.936064,
      "longitudeDeg": 144.370733,
      "region": "AU-VIC",
      "municipality": "Wooloomanata"
    },
    {
      "ident": "AU-0323",
      "name": "Bridport 2nd Airstrip",
      "type": "small_airport",
      "latitudeDeg": -41.029533,
      "longitudeDeg": 147.416556,
      "region": "AU-TAS",
      "municipality": "Bridport"
    },
    {
      "ident": "AU-0324",
      "name": "Lost Farm Golf Course (Barnbougle)",
      "type": "small_airport",
      "latitudeDeg": -40.998702,
      "longitudeDeg": 147.487306,
      "elevationFt": 40,
      "region": "AU-TAS",
      "municipality": "Bridport"
    },
    {
      "ident": "AU-0325",
      "name": "Musselroe Bay Private Airstrip",
      "type": "small_airport",
      "latitudeDeg": -40.863537,
      "longitudeDeg": 148.147863,
      "elevationFt": 135,
      "region": "AU-TAS",
      "municipality": "Musselroe Bay"
    },
    {
      "ident": "AU-0326",
      "name": "North Campbell Town Airfield",
      "type": "small_airport",
      "latitudeDeg": -41.895912,
      "longitudeDeg": 147.477898,
      "region": "AU-TAS",
      "municipality": "Campbell Town"
    },
    {
      "ident": "AU-0327",
      "name": "Pooncarie Airstrip",
      "type": "small_airport",
      "latitudeDeg": -33.377947,
      "longitudeDeg": 142.134113,
      "region": "AU-NSW",
      "municipality": "Pooncarie"
    },
    {
      "ident": "AU-0328",
      "name": "Hillside Station Airfield",
      "type": "small_airport",
      "latitudeDeg": -21.727351,
      "longitudeDeg": 119.393671,
      "region": "AU-WA",
      "municipality": "Hillside Station"
    },
    {
      "ident": "AU-0329",
      "name": "Woodstock Airport (Marble Bar)",
      "type": "small_airport",
      "latitudeDeg": -21.62561,
      "longitudeDeg": 118.963556,
      "elevationFt": 912,
      "region": "AU-WA",
      "municipality": "Marble Bar"
    },
    {
      "ident": "AU-0330",
      "name": "Goshen Station Airport",
      "type": "small_airport",
      "latitudeDeg": -18.13792,
      "longitudeDeg": 145.42831,
      "elevationFt": 2248,
      "region": "AU-QLD",
      "municipality": "Kirrama"
    },
    {
      "ident": "AU-0331",
      "name": "Stirling North/Flinders Field Airport",
      "type": "small_airport",
      "latitudeDeg": -32.529886,
      "longitudeDeg": 137.85269,
      "elevationFt": 110,
      "region": "AU-SA",
      "municipality": "Stirling North",
      "gpsCode": "YFFD"
    },
    {
      "ident": "AU-0332",
      "name": "Concongella private airfield",
      "type": "small_airport",
      "latitudeDeg": -37.051503,
      "longitudeDeg": 142.853812,
      "region": "AU-VIC",
      "municipality": "Concongella"
    },
    {
      "ident": "AU-0333",
      "name": "Ling Lake Airfield",
      "type": "small_airport",
      "latitudeDeg": -37.477018,
      "longitudeDeg": 145.266425,
      "region": "AU-VIC",
      "municipality": "Ling Lake"
    },
    {
      "ident": "AU-0334",
      "name": "Sunbury East Airport",
      "type": "small_airport",
      "latitudeDeg": -37.529859,
      "longitudeDeg": 144.749147,
      "region": "AU-VIC",
      "municipality": "Sunbury"
    },
    {
      "ident": "AU-0336",
      "name": "Stony Creek (Buffalo) Airfield",
      "type": "small_airport",
      "latitudeDeg": -38.605335,
      "longitudeDeg": 146.054201,
      "elevationFt": 197,
      "region": "AU-VIC",
      "municipality": "Stony Creek"
    },
    {
      "ident": "AU-0337",
      "name": "Gleneagles Park Station",
      "type": "small_airport",
      "latitudeDeg": -38.288697,
      "longitudeDeg": 147.140211,
      "region": "AU-VIC",
      "municipality": "Gleneagles Park Station"
    },
    {
      "ident": "AU-0338",
      "name": "Lake Glen Maggie Airfield (Coongulla)",
      "type": "small_airport",
      "latitudeDeg": -37.892352,
      "longitudeDeg": 146.772495,
      "region": "AU-VIC",
      "municipality": "Lake Glen Maggie (Coongulla)"
    },
    {
      "ident": "AU-0339",
      "name": "Hebel airstrip",
      "type": "small_airport",
      "latitudeDeg": -28.980138,
      "longitudeDeg": 147.814764,
      "region": "AU-QLD",
      "municipality": "Hebel"
    },
    {
      "ident": "AU-0340",
      "name": "Singleton Military Area airstrip",
      "type": "small_airport",
      "latitudeDeg": -32.619272,
      "longitudeDeg": 151.180841,
      "region": "AU-NSW",
      "municipality": "Singleton"
    },
    {
      "ident": "AU-0341",
      "name": "Violet Town Airfield",
      "type": "small_airport",
      "latitudeDeg": -36.598167,
      "longitudeDeg": 145.723205,
      "elevationFt": 558,
      "region": "AU-VIC",
      "municipality": "Violet Town"
    },
    {
      "ident": "AU-0342",
      "name": "Burren Junction Airstrip",
      "type": "small_airport",
      "latitudeDeg": -30.033896,
      "longitudeDeg": 149.019432,
      "region": "AU-VIC",
      "municipality": "Burren Junction"
    },
    {
      "ident": "AU-0343",
      "name": "Coleambally Airport No.2",
      "type": "small_airport",
      "latitudeDeg": -34.910226,
      "longitudeDeg": 145.892907,
      "region": "AU-NSW",
      "municipality": "Coleambally"
    },
    {
      "ident": "AU-0344",
      "name": "Caroline Airstrip",
      "type": "small_airport",
      "latitudeDeg": -37.965645,
      "longitudeDeg": 140.891922,
      "region": "AU-SA",
      "municipality": "Caroline"
    },
    {
      "ident": "AU-0345",
      "name": "Hamilton Downs Airstrip",
      "type": "small_airport",
      "latitudeDeg": -23.507335,
      "longitudeDeg": 133.260577,
      "region": "AU-NT",
      "municipality": "Burt Plain"
    },
    {
      "ident": "AU-0346",
      "name": "Emu Gully (Toowoomba) Airfield",
      "type": "small_airport",
      "latitudeDeg": -27.555906,
      "longitudeDeg": 152.08706,
      "region": "AU-QLD",
      "municipality": "Emu Gully (Toowoomba)"
    },
    {
      "ident": "AU-0347",
      "name": "Crowley Vale private airfield",
      "type": "small_airport",
      "latitudeDeg": -27.54855,
      "longitudeDeg": 152.39217,
      "region": "AU-QLD",
      "municipality": "Crowley Vale"
    },
    {
      "ident": "AU-0348",
      "name": "Mccarons private strip",
      "type": "small_airport",
      "latitudeDeg": -27.097131,
      "longitudeDeg": 152.603496,
      "region": "AU-QLD",
      "municipality": "Crossdale"
    },
    {
      "ident": "AU-0349",
      "name": "Cooeeimbardi airstrip Private?",
      "type": "small_airport",
      "latitudeDeg": -27.094334,
      "longitudeDeg": 152.521948,
      "region": "AU-QLD",
      "municipality": "Cooeeimbardi"
    },
    {
      "ident": "AU-0350",
      "name": "Bully Yard private Airfield",
      "type": "small_airport",
      "latitudeDeg": -24.954748,
      "longitudeDeg": 152.086303,
      "region": "AU-QLD",
      "municipality": "Bully Yard"
    },
    {
      "ident": "AU-0351",
      "name": "Old Station Airfield",
      "type": "small_airport",
      "latitudeDeg": -23.817425,
      "longitudeDeg": 150.818134,
      "elevationFt": 122,
      "region": "AU-QLD",
      "municipality": "Raglan",
      "gpsCode": "YOSN"
    },
    {
      "ident": "AU-0352",
      "name": "Quail Island Airstrip",
      "type": "small_airport",
      "latitudeDeg": -22.13068,
      "longitudeDeg": 149.997285,
      "elevationFt": 72,
      "region": "AU-QLD",
      "municipality": "Stanage"
    },
    {
      "ident": "AU-0353",
      "name": "Long Island Airstrip",
      "type": "small_airport",
      "latitudeDeg": -22.149783,
      "longitudeDeg": 149.918143,
      "elevationFt": 75,
      "region": "AU-QLD",
      "municipality": "Stanage"
    },
    {
      "ident": "AU-0354",
      "name": "Wild Duck Island Airstrip",
      "type": "small_airport",
      "latitudeDeg": -22.005583,
      "longitudeDeg": 149.853574,
      "region": "AU-QLD",
      "municipality": "Wild Duck Island"
    },
    {
      "ident": "AU-0355",
      "name": "Paluma Airstrip",
      "type": "small_airport",
      "latitudeDeg": -19.124013,
      "longitudeDeg": 145.83536,
      "region": "AU-QLD",
      "municipality": "Paluma"
    },
    {
      "ident": "AU-0356",
      "name": "Dutton River Homestead airstrip",
      "type": "small_airport",
      "latitudeDeg": -20.379045,
      "longitudeDeg": 143.954302,
      "region": "AU-QLD",
      "municipality": "Dutton River Homestead"
    },
    {
      "ident": "AU-0357",
      "name": "Yerranderie Airfield",
      "type": "small_airport",
      "latitudeDeg": -34.118399,
      "longitudeDeg": 150.218555,
      "region": "AU-NSW",
      "municipality": "Yerranderie"
    },
    {
      "ident": "AU-0358",
      "name": "Marthaguy airstrip private",
      "type": "small_airport",
      "latitudeDeg": -31.032911,
      "longitudeDeg": 147.889562,
      "region": "AU-NSW",
      "municipality": "Marthaguy"
    },
    {
      "ident": "AU-0359",
      "name": "Jaspers Brush Airfield",
      "type": "small_airport",
      "latitudeDeg": -34.815926,
      "longitudeDeg": 150.66173,
      "elevationFt": 2,
      "region": "AU-NSW",
      "municipality": "Nowra"
    },
    {
      "ident": "AU-0360",
      "name": "Cambewarra Airstrip",
      "type": "small_airport",
      "latitudeDeg": -34.830881,
      "longitudeDeg": 150.578555,
      "region": "AU-NSW",
      "municipality": "Cambewarra"
    },
    {
      "ident": "AU-0361",
      "name": "Cameron Corner airstrip",
      "type": "small_airport",
      "latitudeDeg": -28.281821,
      "longitudeDeg": 141.26431,
      "region": "AU-QLD",
      "municipality": "Cameron Corner"
    },
    {
      "ident": "AU-0362",
      "name": "Polpah White Cliffs Airstrip",
      "type": "small_airport",
      "latitudeDeg": -30.846128,
      "longitudeDeg": 143.231077,
      "region": "AU-NSW",
      "municipality": "White Cliffs"
    },
    {
      "ident": "AU-0363",
      "name": "Salt lake Airstrip",
      "type": "small_airport",
      "latitudeDeg": -30.191125,
      "longitudeDeg": 144.43202,
      "region": "AU-NSW"
    },
    {
      "ident": "AU-0364",
      "name": "Keelameara Airport",
      "type": "small_airport",
      "latitudeDeg": -30.676785,
      "longitudeDeg": 144.299498,
      "region": "AU-NSW",
      "municipality": "Tilpa"
    },
    {
      "ident": "AU-0365",
      "name": "Myall Airstrip",
      "type": "small_airport",
      "latitudeDeg": -30.708378,
      "longitudeDeg": 144.038143,
      "region": "AU-NSW"
    },
    {
      "ident": "AU-0366",
      "name": "Conlea",
      "type": "small_airport",
      "latitudeDeg": -30.073625,
      "longitudeDeg": 144.569907,
      "region": "AU-NSW"
    },
    {
      "ident": "AU-0367",
      "name": "Unknown airstrip",
      "type": "small_airport",
      "latitudeDeg": -30.135552,
      "longitudeDeg": 144.900709,
      "region": "AU-NSW"
    },
    {
      "ident": "AU-0368",
      "name": "Cameron Corner bush strip",
      "type": "small_airport",
      "latitudeDeg": -28.152303,
      "longitudeDeg": 141.132753,
      "region": "AU-QLD",
      "municipality": "Cameron Corner"
    },
    {
      "ident": "AU-0369",
      "name": "Ningaling homestead",
      "type": "small_airport",
      "latitudeDeg": -28.96129,
      "longitudeDeg": 144.637671,
      "region": "AU-NSW",
      "municipality": "Ningaling homestead"
    },
    {
      "ident": "AU-0370",
      "name": "Wombah Homestead Airfield",
      "type": "small_airport",
      "latitudeDeg": -28.918702,
      "longitudeDeg": 144.766417,
      "elevationFt": 453,
      "region": "AU-QLD",
      "municipality": "Wombah Homestead"
    },
    {
      "ident": "AU-0371",
      "name": "Byra Airefield",
      "type": "small_airport",
      "latitudeDeg": -28.976008,
      "longitudeDeg": 147.209544,
      "region": "AU-QLD",
      "municipality": "Byra"
    },
    {
      "ident": "AU-0372",
      "name": "Cooplacurripa",
      "type": "small_airport",
      "latitudeDeg": -31.613134,
      "longitudeDeg": 151.908742,
      "region": "AU-NSW",
      "municipality": "Cooplacurripa"
    },
    {
      "ident": "AU-0373",
      "name": "Wilcannia airstrip",
      "type": "small_airport",
      "latitudeDeg": -31.40575,
      "longitudeDeg": 143.188323,
      "region": "AU-NSW",
      "municipality": "Wilcannia"
    },
    {
      "ident": "AU-0374",
      "name": "Taylors Private Airfield",
      "type": "small_airport",
      "latitudeDeg": -28.52662,
      "longitudeDeg": 114.633045,
      "elevationFt": 482,
      "region": "AU-WA",
      "municipality": "Howatharra"
    },
    {
      "ident": "AU-0375",
      "name": "Menindee airfield",
      "type": "small_airport",
      "latitudeDeg": -32.726028,
      "longitudeDeg": 142.108141,
      "region": "AU-NSW",
      "municipality": "Menindee"
    },
    {
      "ident": "AU-0376",
      "name": "Yarramba Station Airfield",
      "type": "small_airport",
      "latitudeDeg": -31.66388,
      "longitudeDeg": 140.622222,
      "elevationFt": 365,
      "region": "AU-SA",
      "municipality": "Curnamona",
      "localCode": "YYRMB"
    },
    {
      "ident": "AU-0377",
      "name": "Wiawera Station Airstrip",
      "type": "small_airport",
      "latitudeDeg": -32.292044,
      "longitudeDeg": 140.407221,
      "elevationFt": 885,
      "region": "AU-SA",
      "municipality": "Wiawera",
      "localCode": "YWWRA"
    },
    {
      "ident": "AU-0378",
      "name": "Whurlie Station Airport",
      "type": "small_airport",
      "latitudeDeg": -33.023682,
      "longitudeDeg": 142.347431,
      "region": "AU-NSW",
      "municipality": "Pooncarie"
    },
    {
      "ident": "AU-0379",
      "name": "Karoola Airport",
      "type": "small_airport",
      "latitudeDeg": -32.944155,
      "longitudeDeg": 142.392727,
      "region": "AU-NSW",
      "municipality": "Menindee"
    },
    {
      "ident": "AU-0380",
      "name": "Menindee Number 2 Airport",
      "type": "small_airport",
      "latitudeDeg": -32.847423,
      "longitudeDeg": 142.476044,
      "elevationFt": 214,
      "region": "AU-NSW",
      "municipality": "Menindee"
    },
    {
      "ident": "AU-0381",
      "name": "Bindara Airstrip",
      "type": "small_airport",
      "latitudeDeg": -32.736805,
      "longitudeDeg": 142.355986,
      "region": "AU-NSW",
      "municipality": "Menindee"
    },
    {
      "ident": "AU-0382",
      "name": "four mile lake airstrip",
      "type": "small_airport",
      "latitudeDeg": -32.087571,
      "longitudeDeg": 142.894764,
      "region": "AU-NSW",
      "municipality": "Menindee"
    },
    {
      "ident": "AU-0383",
      "name": "Urana Aerodrome",
      "type": "small_airport",
      "latitudeDeg": -35.341242,
      "longitudeDeg": 146.285218,
      "region": "AU-NSW",
      "municipality": "Urana"
    },
    {
      "ident": "AU-0384",
      "name": "Pine Valley Airstrip",
      "type": "small_airport",
      "latitudeDeg": -33.316328,
      "longitudeDeg": 140.194881,
      "elevationFt": 300,
      "region": "AU-SA",
      "municipality": "Pine Valley Station",
      "localCode": "YPNVL"
    },
    {
      "ident": "AU-0385",
      "name": "Bono Station Airport",
      "type": "small_airport",
      "latitudeDeg": -32.565419,
      "longitudeDeg": 142.402085,
      "region": "AU-NSW",
      "municipality": "Menindee"
    },
    {
      "ident": "AU-0387",
      "name": "Murtee Station",
      "type": "small_airport",
      "latitudeDeg": -31.576524,
      "longitudeDeg": 143.496093,
      "region": "AU-NSW",
      "municipality": "Wilcannia"
    },
    {
      "ident": "AU-0388",
      "name": "Barraroo Airstrip",
      "type": "small_airport",
      "latitudeDeg": -32.117535,
      "longitudeDeg": 142.982026,
      "region": "AU-NSW",
      "municipality": "Barraroo"
    },
    {
      "ident": "AU-0389",
      "name": "Menindee Number 3 Airport",
      "type": "small_airport",
      "latitudeDeg": -32.624012,
      "longitudeDeg": 142.44113,
      "elevationFt": 200,
      "region": "AU-NSW",
      "municipality": "Menindee"
    },
    {
      "ident": "AU-0390",
      "name": "Menindee airfield no 4",
      "type": "small_airport",
      "latitudeDeg": -32.467468,
      "longitudeDeg": 142.908508,
      "region": "AU-NSW",
      "municipality": "Menindee"
    },
    {
      "ident": "AU-0391",
      "name": "St James Private airfield",
      "type": "small_airport",
      "latitudeDeg": -36.295969,
      "longitudeDeg": 145.932827,
      "region": "AU-VIC",
      "municipality": "St James"
    },
    {
      "ident": "AU-0392",
      "name": "Smeaton airfield private",
      "type": "small_airport",
      "latitudeDeg": -37.258037,
      "longitudeDeg": 143.968121,
      "region": "AU-VIC",
      "municipality": "Smeaton"
    },
    {
      "ident": "AU-0393",
      "name": "Murray-Sunset Airport",
      "type": "small_airport",
      "latitudeDeg": -34.766728,
      "longitudeDeg": 141.941351,
      "region": "AU-VIC",
      "municipality": "Murray-Sunset"
    },
    {
      "ident": "AU-0394",
      "name": "Trentham Cliffs airstrip",
      "type": "small_airport",
      "latitudeDeg": -34.234051,
      "longitudeDeg": 142.267845,
      "region": "AU-NSW",
      "municipality": "Trentham Cliffs"
    },
    {
      "ident": "AU-0395",
      "name": "Oura Private Airstrip",
      "type": "small_airport",
      "latitudeDeg": -35.06493,
      "longitudeDeg": 147.68763,
      "elevationFt": 659,
      "region": "AU-NSW",
      "municipality": "Oura"
    },
    {
      "ident": "AU-0396",
      "name": "Newry Airfield",
      "type": "small_airport",
      "latitudeDeg": -37.857752,
      "longitudeDeg": 146.917496,
      "region": "AU-VIC",
      "municipality": "Newry"
    },
    {
      "ident": "AU-0397",
      "name": "Clydebank private Airstrip",
      "type": "small_airport",
      "latitudeDeg": -38.037818,
      "longitudeDeg": 147.1902,
      "region": "AU-VIC",
      "municipality": "Clydebank"
    },
    {
      "ident": "AU-0398",
      "name": "Kudardup Airfield",
      "type": "small_airport",
      "latitudeDeg": -34.270484,
      "longitudeDeg": 115.193991,
      "region": "AU-WA",
      "municipality": "Kudardup"
    },
    {
      "ident": "AU-0399",
      "name": "Ellendale Chalets Accomodation airfield",
      "type": "small_airport",
      "latitudeDeg": -33.595227,
      "longitudeDeg": 115.571649,
      "region": "AU-WA",
      "municipality": "Capel"
    },
    {
      "ident": "AU-0400",
      "name": "Wyloo Station airfield",
      "type": "small_airport",
      "latitudeDeg": -22.700346,
      "longitudeDeg": 116.237942,
      "region": "AU-WA",
      "municipality": "Nanutarra"
    },
    {
      "ident": "AU-0401",
      "name": "West Lyons River Airstrip",
      "type": "small_airport",
      "latitudeDeg": -24.032816,
      "longitudeDeg": 115.695533,
      "region": "AU-WA",
      "municipality": "West Lyons River"
    },
    {
      "ident": "AU-0402",
      "name": "Lyndon homestead airfield",
      "type": "small_airport",
      "latitudeDeg": -23.150977,
      "longitudeDeg": 114.549281,
      "region": "AU-WA",
      "municipality": "Lyndon homestead"
    },
    {
      "ident": "AU-0403",
      "name": "Byro Station arstrip",
      "type": "small_airport",
      "latitudeDeg": -26.070668,
      "longitudeDeg": 116.152606,
      "region": "AU-WA",
      "municipality": "Byro Station"
    },
    {
      "ident": "AU-0404",
      "name": "Wahring Field",
      "type": "small_airport",
      "latitudeDeg": -36.68112,
      "longitudeDeg": 145.242379,
      "elevationFt": 410,
      "region": "AU-VIC",
      "municipality": "Wahring",
      "gpsCode": "YWHG"
    },
    {
      "ident": "AU-0405",
      "name": "Raywood Airfield",
      "type": "small_airport",
      "latitudeDeg": -36.537181,
      "longitudeDeg": 144.241183,
      "elevationFt": 450,
      "region": "AU-VIC",
      "municipality": "Raywood",
      "gpsCode": "YRYW"
    },
    {
      "ident": "AU-0406",
      "name": "Victoria Valley Airbase",
      "type": "small_airport",
      "latitudeDeg": -37.183139,
      "longitudeDeg": 142.340821,
      "region": "AU-VIC",
      "municipality": "Victoria Valley Grampians"
    },
    {
      "ident": "AU-0407",
      "name": "Gingkin Airfield",
      "type": "small_airport",
      "latitudeDeg": -33.894607,
      "longitudeDeg": 149.93848,
      "region": "AU-NSW",
      "municipality": "Gingkin"
    },
    {
      "ident": "AU-0408",
      "name": "Tibooburra Homestead airstrip",
      "type": "small_airport",
      "latitudeDeg": -29.487704,
      "longitudeDeg": 142.070284,
      "region": "AU-NSW",
      "municipality": "Tibooburra"
    },
    {
      "ident": "AU-0409",
      "name": "Ballycastle homestead airstrip",
      "type": "small_airport",
      "latitudeDeg": -30.186026,
      "longitudeDeg": 145.058815,
      "region": "AU-NSW",
      "municipality": "Ballycastle homestead"
    },
    {
      "ident": "AU-0410",
      "name": "Euabalong private airstrip",
      "type": "small_airport",
      "latitudeDeg": -33.073669,
      "longitudeDeg": 146.576225,
      "region": "AU-NSW",
      "municipality": "Euabalong"
    },
    {
      "ident": "AU-0411",
      "name": "Bowral Private Airfield",
      "type": "small_airport",
      "latitudeDeg": -34.511353,
      "longitudeDeg": 150.423915,
      "elevationFt": 2182,
      "region": "AU-NSW",
      "municipality": "Bowral"
    },
    {
      "ident": "AU-0412",
      "name": "St Mary's / Kennetts Airfield",
      "type": "small_airport",
      "latitudeDeg": -33.831866,
      "longitudeDeg": 150.745829,
      "region": "AU-NSW",
      "municipality": "Luddenham"
    },
    {
      "ident": "AU-0413",
      "name": "Fraser Island (Gippsland reserve) airstrip",
      "type": "small_airport",
      "latitudeDeg": -37.886065,
      "longitudeDeg": 147.93401,
      "region": "AU-VIC",
      "municipality": "Fraser Island"
    },
    {
      "ident": "AU-0414",
      "name": "Kelly head airstrip",
      "type": "small_airport",
      "latitudeDeg": -37.896405,
      "longitudeDeg": 147.935501,
      "region": "AU-VIC",
      "municipality": "Kelly Head"
    },
    {
      "ident": "AU-0415",
      "name": "lake Modewarre Private airstrip",
      "type": "small_airport",
      "latitudeDeg": -38.260015,
      "longitudeDeg": 144.092763,
      "elevationFt": 420,
      "region": "AU-VIC",
      "municipality": "Lake modeWarre",
      "gpsCode": "YMOD"
    },
    {
      "ident": "AU-0416",
      "name": "lake Modewarre Private airstrip no.2",
      "type": "small_airport",
      "latitudeDeg": -38.260736,
      "longitudeDeg": 144.099605,
      "region": "AU-VIC",
      "municipality": "Lake ModeWarre"
    },
    {
      "ident": "AU-0417",
      "name": "Bellbrae Private Airstrip",
      "type": "small_airport",
      "latitudeDeg": -38.32697,
      "longitudeDeg": 144.236209,
      "region": "AU-VIC",
      "municipality": "BellBrae"
    },
    {
      "ident": "AU-0418",
      "name": "Derrinallum (Poligolet Station) airstrip",
      "type": "small_airport",
      "latitudeDeg": -37.982298,
      "longitudeDeg": 143.147195,
      "region": "AU-VIC",
      "municipality": "Derrinallum"
    },
    {
      "ident": "AU-0419",
      "name": "Normanton homestead airstrip",
      "type": "small_airport",
      "latitudeDeg": -17.625184,
      "longitudeDeg": 141.185782,
      "region": "AU-QLD",
      "municipality": "Normanton"
    },
    {
      "ident": "AU-0420",
      "name": "Glendara Road Airstrip",
      "type": "small_airport",
      "latitudeDeg": -30.584612,
      "longitudeDeg": 143.347566,
      "region": "AU-NSW",
      "municipality": "Wilcannia"
    },
    {
      "ident": "AU-0421",
      "name": "Fenton Airfield (RAAF)",
      "type": "small_airport",
      "latitudeDeg": -13.620818,
      "longitudeDeg": 131.33853,
      "region": "AU-NT"
    },
    {
      "ident": "AU-0422",
      "name": "Adelaide River Airfield",
      "type": "small_airport",
      "latitudeDeg": -13.232564,
      "longitudeDeg": 131.137481,
      "region": "AU-NT",
      "municipality": "Adelaide River"
    },
    {
      "ident": "AU-0423",
      "name": "Coomalie Creek Airfield",
      "type": "small_airport",
      "latitudeDeg": -13.010375,
      "longitudeDeg": 131.13014,
      "region": "AU-NT",
      "municipality": "Coomalie Creek"
    },
    {
      "ident": "AU-0424",
      "name": "Lachlan E Purkis Memoral Airfield",
      "type": "small_airport",
      "latitudeDeg": -12.688895,
      "longitudeDeg": 131.089253,
      "region": "AU-NT",
      "municipality": "Livingstone"
    },
    {
      "ident": "AU-0427",
      "name": "The junction race club airport",
      "type": "small_airport",
      "latitudeDeg": -25.058134,
      "longitudeDeg": 115.120438,
      "region": "AU-WA",
      "municipality": "The junction"
    },
    {
      "ident": "AU-0431",
      "name": "Rutland Plains Station Airport",
      "type": "small_airport",
      "latitudeDeg": -15.64047,
      "longitudeDeg": 141.82741,
      "elevationFt": 56,
      "region": "AU-QLD",
      "municipality": "Yagoonya"
    },
    {
      "ident": "AU-0432",
      "name": "Nyonger Farm Airstrip",
      "type": "small_airport",
      "latitudeDeg": -32.345045,
      "longitudeDeg": 119.187099,
      "region": "AU-WA",
      "municipality": "Nyonger Farm"
    },
    {
      "ident": "AU-0433",
      "name": "Loxton private strip",
      "type": "small_airport",
      "latitudeDeg": -34.467111,
      "longitudeDeg": 140.505143,
      "region": "AU-SA",
      "municipality": "Loxton"
    },
    {
      "ident": "AU-0434",
      "name": "Lochiel Airfield",
      "type": "small_airport",
      "latitudeDeg": -33.886604,
      "longitudeDeg": 138.103747,
      "region": "AU-SA",
      "municipality": "Lochiel Airfield"
    },
    {
      "ident": "AU-0435",
      "name": "Cherry Gardens Airstrip",
      "type": "small_airport",
      "latitudeDeg": -35.091503,
      "longitudeDeg": 138.661172,
      "region": "AU-SA",
      "municipality": "Clarendon"
    },
    {
      "ident": "AU-0436",
      "name": "Aldinga private airstrip",
      "type": "small_airport",
      "latitudeDeg": -35.29393,
      "longitudeDeg": 138.477345,
      "region": "AU-SA",
      "municipality": "Aldinga"
    },
    {
      "ident": "AU-0437",
      "name": "Three Rivers Airstrip",
      "type": "small_airport",
      "latitudeDeg": -25.126975,
      "longitudeDeg": 119.151205,
      "region": "AU-WA",
      "municipality": "Three Rivers"
    },
    {
      "ident": "AU-0438",
      "name": "Prairie Downs Airstrip",
      "type": "small_airport",
      "latitudeDeg": -23.548547,
      "longitudeDeg": 119.157314,
      "region": "AU-WA",
      "municipality": "Prairie Downs"
    },
    {
      "ident": "AU-0439",
      "name": "Capricorn Village Airstrip",
      "type": "small_airport",
      "latitudeDeg": -23.455491,
      "longitudeDeg": 119.802557,
      "region": "AU-WA",
      "municipality": "Newman (Capricorn Village)"
    },
    {
      "ident": "AU-0450",
      "name": "Passage Island Airport",
      "type": "small_airport",
      "latitudeDeg": -40.499949,
      "longitudeDeg": 148.338314,
      "elevationFt": 121,
      "region": "AU-TAS",
      "municipality": "Passage Island",
      "gpsCode": "YPSI"
    },
    {
      "ident": "AU-0451",
      "name": "Badger Island Airport",
      "type": "small_airport",
      "latitudeDeg": -40.318729,
      "longitudeDeg": 147.88957,
      "elevationFt": 41,
      "region": "AU-TAS",
      "municipality": "Badger Island",
      "gpsCode": "YBDI"
    },
    {
      "ident": "AU-0452",
      "name": "Mount Chappell Island Airfield",
      "type": "small_airport",
      "latitudeDeg": -40.267743,
      "longitudeDeg": 147.929143,
      "elevationFt": 110,
      "region": "AU-TAS",
      "municipality": "Mount Chappell Island",
      "localCode": "CB05"
    },
    {
      "ident": "AU-0453",
      "name": "Inner Sister Island Aerodrome",
      "type": "small_airport",
      "latitudeDeg": -39.695184,
      "longitudeDeg": 147.914182,
      "elevationFt": 53,
      "region": "AU-TAS",
      "municipality": "Inner Sister Island",
      "localCode": "FI01"
    },
    {
      "ident": "AU-0455",
      "name": "Laglan airstrip",
      "type": "small_airport",
      "latitudeDeg": -22.044223,
      "longitudeDeg": 146.282462,
      "region": "AU-QLD",
      "municipality": "Laglan"
    },
    {
      "ident": "AU-0456",
      "name": "Gruyere Airport",
      "type": "small_airport",
      "latitudeDeg": -28.034548,
      "longitudeDeg": 123.81506,
      "elevationFt": 1542,
      "region": "AU-WA",
      "municipality": "Cosmo Newbery",
      "icaoCode": "YGRM",
      "iataCode": "GYZ",
      "gpsCode": "YGRM"
    },
    {
      "ident": "AU-0458",
      "name": "Tilmouth Airstrip",
      "type": "small_airport",
      "latitudeDeg": -22.812222,
      "longitudeDeg": 132.606667,
      "elevationFt": 1880,
      "region": "AU-NT",
      "municipality": "Anmatjere",
      "localCode": "YTLMT"
    },
    {
      "ident": "AU-0459",
      "name": "Newry (RFDS) Airstrip",
      "type": "small_airport",
      "latitudeDeg": -16.059021,
      "longitudeDeg": 129.205946,
      "elevationFt": 332,
      "region": "AU-NT",
      "municipality": "Baines"
    },
    {
      "ident": "AU-0460",
      "name": "Rosewood Airport",
      "type": "small_airport",
      "latitudeDeg": -16.450695,
      "longitudeDeg": 129.007335,
      "elevationFt": 460,
      "region": "AU-NT",
      "municipality": "Baines"
    },
    {
      "ident": "AU-0461",
      "name": "Rundalua Station Airstrip",
      "type": "small_airport",
      "latitudeDeg": -27.060146,
      "longitudeDeg": 146.715219,
      "elevationFt": 110,
      "region": "AU-QLD",
      "municipality": "Boatman"
    },
    {
      "ident": "AU-0463",
      "name": "Tirlta Station Airstrip",
      "type": "small_airport",
      "latitudeDeg": -31.251643,
      "longitudeDeg": 142.094821,
      "elevationFt": 485,
      "region": "AU-NSW",
      "municipality": "Mutawintji"
    },
    {
      "ident": "AU-0464",
      "name": "Mutawintji Historic Site airstrip",
      "type": "small_airport",
      "latitudeDeg": -31.244912,
      "longitudeDeg": 142.282516,
      "region": "AU-NSW",
      "municipality": "Mutawintji Historic Site"
    },
    {
      "ident": "AU-0465",
      "name": "Grassmere Airfield",
      "type": "small_airport",
      "latitudeDeg": -31.419155,
      "longitudeDeg": 142.625027,
      "elevationFt": 583,
      "region": "AU-NSW",
      "municipality": "Mutawintji"
    },
    {
      "ident": "AU-0479",
      "name": "Cameron Corner Airstrip",
      "type": "small_airport",
      "latitudeDeg": -29.003252,
      "longitudeDeg": 140.994265,
      "elevationFt": 366,
      "region": "AU-QLD",
      "municipality": "Bollards Lagoon"
    },
    {
      "ident": "AU-0480",
      "name": "Lake Wells Station Airport",
      "type": "small_airport",
      "latitudeDeg": -27.28818,
      "longitudeDeg": 123.00507,
      "elevationFt": 1506,
      "region": "AU-WA",
      "municipality": "Lake Wells"
    },
    {
      "ident": "AU-0487",
      "name": "Tangorin Airport",
      "type": "small_airport",
      "latitudeDeg": -21.056488,
      "longitudeDeg": 144.2012,
      "elevationFt": 1014,
      "region": "AU-QLD",
      "municipality": "Tangorin"
    },
    {
      "ident": "AU-0488",
      "name": "Tongo Woolshed Airport",
      "type": "small_airport",
      "latitudeDeg": -30.39828,
      "longitudeDeg": 143.7178,
      "region": "AU-NSW",
      "municipality": "Wilcannia"
    },
    {
      "ident": "AU-0489",
      "name": "Momba Airport",
      "type": "small_airport",
      "latitudeDeg": -30.97887,
      "longitudeDeg": 143.50108,
      "region": "AU-NSW",
      "municipality": "Wilcannia"
    },
    {
      "ident": "AU-0490",
      "name": "Packsaddle Airport",
      "type": "small_airport",
      "latitudeDeg": -30.29424,
      "longitudeDeg": 142.13758,
      "elevationFt": 342,
      "region": "AU-NSW",
      "municipality": "Packsaddle",
      "icaoCode": "YPAS",
      "gpsCode": "YPAS"
    },
    {
      "ident": "AU-0491",
      "name": "Pimpara Lake Station Airport",
      "type": "small_airport",
      "latitudeDeg": -30.42618,
      "longitudeDeg": 141.72401,
      "region": "AU-NSW",
      "municipality": "Packsaddle"
    },
    {
      "ident": "AU-0492",
      "name": "Nundooka Station Airport",
      "type": "small_airport",
      "latitudeDeg": -30.88683,
      "longitudeDeg": 141.70055,
      "region": "AU-NSW",
      "municipality": "Broughams Gate"
    },
    {
      "ident": "AU-0493",
      "name": "Broughams Gate Airport",
      "type": "small_airport",
      "latitudeDeg": -30.91832,
      "longitudeDeg": 141.26877,
      "region": "AU-NSW",
      "municipality": "Broughams Gate"
    },
    {
      "ident": "AU-0494",
      "name": "Rough Gap Airport",
      "type": "small_airport",
      "latitudeDeg": -30.3872,
      "longitudeDeg": 122.52162,
      "region": "AU-WA",
      "municipality": "Cundeelee"
    },
    {
      "ident": "AU-0495",
      "name": "Bulong Airport",
      "type": "small_airport",
      "latitudeDeg": -30.75525,
      "longitudeDeg": 121.75232,
      "region": "AU-WA",
      "municipality": "Bulong"
    },
    {
      "ident": "AU-0497",
      "name": "Albeni Station Airport",
      "type": "small_airport",
      "latitudeDeg": -24.575544,
      "longitudeDeg": 147.080176,
      "elevationFt": 1276,
      "region": "AU-QLD",
      "municipality": "Mantuan Downs"
    },
    {
      "ident": "AU-0498",
      "name": "Mark Posa Memorial Airfield",
      "type": "small_airport",
      "latitudeDeg": -11.55145,
      "longitudeDeg": 130.58485,
      "region": "AU-NT",
      "municipality": "Milikapiti"
    },
    {
      "ident": "AU-0499",
      "name": "Sandford Airstrip",
      "type": "small_airport",
      "latitudeDeg": -12.6075,
      "longitudeDeg": 131.05378,
      "region": "AU-NT",
      "municipality": "Weddell"
    },
    {
      "ident": "AU-0503",
      "name": "Elizabeth Downs Airport",
      "type": "small_airport",
      "latitudeDeg": -13.7439,
      "longitudeDeg": 130.50485,
      "region": "AU-NT",
      "municipality": "Tipperary",
      "gpsCode": "YELZ"
    },
    {
      "ident": "AU-0504",
      "name": "Duketon Gold Airport",
      "type": "small_airport",
      "latitudeDeg": -27.60237,
      "longitudeDeg": 122.33567,
      "elevationFt": 1770,
      "region": "AU-WA",
      "municipality": "Bandya",
      "gpsCode": "YDKG"
    },
    {
      "ident": "AU-0505",
      "name": "Second Fortune Gold Mine Airport",
      "type": "small_airport",
      "latitudeDeg": -29.37316,
      "longitudeDeg": 122.44932,
      "region": "AU-WA",
      "municipality": "Kookynie"
    },
    {
      "ident": "AU-0507",
      "name": "Blaxland Range Airstrip",
      "type": "small_airport",
      "latitudeDeg": -27.26044,
      "longitudeDeg": 123.30387,
      "elevationFt": 1473,
      "region": "AU-WA",
      "municipality": "Lake Wells"
    },
    {
      "ident": "AU-0508",
      "name": "Burleigh North Airstrip",
      "type": "small_airport",
      "latitudeDeg": -20.053568,
      "longitudeDeg": 143.163155,
      "elevationFt": 984,
      "region": "AU-QLD",
      "municipality": "Burleigh"
    },
    {
      "ident": "AU-0509",
      "name": "Burleigh Homestead Airstrip",
      "type": "small_airport",
      "latitudeDeg": -20.262897,
      "longitudeDeg": 143.11883,
      "elevationFt": 882,
      "region": "AU-QLD",
      "municipality": "Burleigh"
    },
    {
      "ident": "AU-0510",
      "name": "Bunyarra Airstrip",
      "type": "small_airport",
      "latitudeDeg": -30.90357,
      "longitudeDeg": 146.835571,
      "elevationFt": 613,
      "region": "AU-NSW",
      "municipality": "Coolabah"
    },
    {
      "ident": "AU-0511",
      "name": "Bulloo Downs Airport",
      "type": "small_airport",
      "latitudeDeg": -28.52072,
      "longitudeDeg": 142.959913,
      "elevationFt": 332,
      "region": "AU-QLD",
      "municipality": "Bulloo Downs",
      "gpsCode": "YBUO"
    },
    {
      "ident": "AU-0513",
      "name": "OK Village Airport",
      "type": "small_airport",
      "latitudeDeg": -10.95567,
      "longitudeDeg": 142.70392,
      "region": "AU-QLD",
      "municipality": "Bogie"
    },
    {
      "ident": "AU-0514",
      "name": "Beagle Bay Airport",
      "type": "small_airport",
      "latitudeDeg": -12.904048,
      "longitudeDeg": 141.69836,
      "region": "AU-QLD",
      "municipality": "Mission River"
    },
    {
      "ident": "AU-0515",
      "name": "Mount Mulgrave Airport",
      "type": "small_airport",
      "latitudeDeg": -16.37614,
      "longitudeDeg": 143.99083,
      "region": "AU-QLD",
      "municipality": "Mount Mulgrave"
    },
    {
      "ident": "AU-0516",
      "name": "Bellevue Airport",
      "type": "small_airport",
      "latitudeDeg": -16.51297,
      "longitudeDeg": 144.18378,
      "region": "AU-QLD",
      "municipality": "Bellevue"
    },
    {
      "ident": "AU-0518",
      "name": "King Vol Mine Airport",
      "type": "small_airport",
      "latitudeDeg": -16.89539,
      "longitudeDeg": 144.21956,
      "region": "AU-QLD",
      "municipality": "Rookwood"
    },
    {
      "ident": "AU-0519",
      "name": "Carson River Airport",
      "type": "small_airport",
      "latitudeDeg": -14.48847,
      "longitudeDeg": 126.76303,
      "region": "AU-WA",
      "municipality": "Drysdale River"
    },
    {
      "ident": "AU-0520",
      "name": "Kimbolton Airport",
      "type": "small_airport",
      "latitudeDeg": -16.69839,
      "longitudeDeg": 123.83324,
      "region": "AU-WA",
      "municipality": "Kimbolton"
    },
    {
      "ident": "AU-0521",
      "name": "Robinson River Airport",
      "type": "small_airport",
      "latitudeDeg": -16.76368,
      "longitudeDeg": 123.98652,
      "region": "AU-WA",
      "municipality": "Kimbolton"
    },
    {
      "ident": "AU-0522",
      "name": "Roebuck Plains Roadhouse Airport",
      "type": "small_airport",
      "latitudeDeg": -17.84541,
      "longitudeDeg": 122.50283,
      "region": "AU-WA",
      "municipality": "Roebuck"
    },
    {
      "ident": "AU-0524",
      "name": "Koarlo Airport",
      "type": "small_airport",
      "latitudeDeg": -28.62979,
      "longitudeDeg": 150.540193,
      "elevationFt": 764,
      "region": "AU-QLD",
      "municipality": "Koarlo",
      "gpsCode": "YKOA"
    },
    {
      "ident": "AU-0535",
      "name": "Dr Fox Airstrip",
      "type": "small_airport",
      "latitudeDeg": -33.425819,
      "longitudeDeg": 151.035901,
      "elevationFt": 10,
      "region": "AU-NSW",
      "municipality": "Gunderman",
      "localCode": "OZHDZ"
    },
    {
      "ident": "AU-0538",
      "name": "Tinbeerwah Airstrip (private)",
      "type": "small_airport",
      "latitudeDeg": -26.411335,
      "longitudeDeg": 152.962976,
      "region": "AU-QLD",
      "municipality": "Cooroy",
      "localCode": "QN00"
    },
    {
      "ident": "AU-0543",
      "name": "norley airstrip",
      "type": "small_airport",
      "latitudeDeg": -27.789962,
      "longitudeDeg": 143.868542,
      "region": "AU-QLD",
      "municipality": "Thargomindah"
    },
    {
      "ident": "AU-0544",
      "name": "Private airstrip",
      "type": "small_airport",
      "latitudeDeg": -27.773226,
      "longitudeDeg": 143.951602,
      "region": "AU-QLD",
      "municipality": "Thargomindah"
    },
    {
      "ident": "AU-0545",
      "name": "Taroom airstrip",
      "type": "small_airport",
      "latitudeDeg": -25.630244,
      "longitudeDeg": 149.776107,
      "region": "AU-QLD",
      "municipality": "Taroom"
    },
    {
      "ident": "AU-0546",
      "name": "Taroom airstrip #2 private",
      "type": "small_airport",
      "latitudeDeg": -25.633863,
      "longitudeDeg": 149.76759,
      "region": "AU-QLD",
      "municipality": "Taroom"
    },
    {
      "ident": "AU-0547",
      "name": "Eidsvold airpstrip",
      "type": "small_airport",
      "latitudeDeg": -25.361002,
      "longitudeDeg": 151.108969,
      "region": "AU-QLD",
      "municipality": "Eidsvold"
    },
    {
      "ident": "AU-0549",
      "name": "May Downs Station",
      "type": "small_airport",
      "latitudeDeg": -20.588087,
      "longitudeDeg": 139.338896,
      "region": "AU-QLD",
      "municipality": "May Downs"
    },
    {
      "ident": "AU-0550",
      "name": "Lark Quarry Airport",
      "type": "small_airport",
      "latitudeDeg": -23.029485,
      "longitudeDeg": 142.432563,
      "region": "AU-QLD",
      "municipality": "Lark Quarry"
    },
    {
      "ident": "AU-0551",
      "name": "Yaraka Airport",
      "type": "small_airport",
      "latitudeDeg": -24.892806,
      "longitudeDeg": 144.061637,
      "region": "AU-QLD",
      "municipality": "Yaraka"
    },
    {
      "ident": "AU-0552",
      "name": "Caranna Station Airstrip",
      "type": "small_airport",
      "latitudeDeg": -25.399525,
      "longitudeDeg": 145.34815,
      "region": "AU-QLD",
      "municipality": "Caranna Station"
    },
    {
      "ident": "AU-0553",
      "name": "Attica State Forest Airstrip",
      "type": "small_airport",
      "latitudeDeg": -25.244083,
      "longitudeDeg": 147.381276,
      "region": "AU-QLD",
      "municipality": "Attica State Forest"
    },
    {
      "ident": "AU-0554",
      "name": "Weona Station Airstrip",
      "type": "small_airport",
      "latitudeDeg": -23.062344,
      "longitudeDeg": 142.825694,
      "region": "AU-QLD",
      "municipality": "Weona Station"
    },
    {
      "ident": "AU-0555",
      "name": "Willows airstrip",
      "type": "small_airport",
      "latitudeDeg": -23.717272,
      "longitudeDeg": 147.380109,
      "region": "AU-QLD",
      "municipality": "Willows QLD 4702"
    },
    {
      "ident": "AU-0556",
      "name": "Drummondslope Airstrip",
      "type": "small_airport",
      "latitudeDeg": -24.124483,
      "longitudeDeg": 146.636271,
      "region": "AU-QLD",
      "municipality": "Drummondslope QLD 4724"
    },
    {
      "ident": "AU-0557",
      "name": "Farrars Creek station Airstrip",
      "type": "small_airport",
      "latitudeDeg": -25.144841,
      "longitudeDeg": 141.347886,
      "region": "AU-QLD",
      "municipality": "Farrars Creek"
    },
    {
      "ident": "AU-0558",
      "name": "Middleton Racecourse Airstrip",
      "type": "small_airport",
      "latitudeDeg": -22.37917,
      "longitudeDeg": 141.528624,
      "region": "AU-QLD",
      "municipality": "Middleton"
    },
    {
      "ident": "AU-0559",
      "name": "Wiralla Airstrip",
      "type": "small_airport",
      "latitudeDeg": -27.795594,
      "longitudeDeg": 144.258769,
      "region": "AU-QLD",
      "municipality": "Wiralla"
    },
    {
      "ident": "AU-0560",
      "name": "Thargo station airstrip",
      "type": "small_airport",
      "latitudeDeg": -27.86227,
      "longitudeDeg": 144.271528,
      "region": "AU-QLD",
      "municipality": "Thargo station"
    },
    {
      "ident": "AU-0561",
      "name": "Duchess airstrip",
      "type": "small_airport",
      "latitudeDeg": -21.335355,
      "longitudeDeg": 139.88162,
      "region": "AU-QLD",
      "municipality": "Duchess"
    },
    {
      "ident": "AU-0562",
      "name": "Brides Creek station airstrip",
      "type": "small_airport",
      "latitudeDeg": -25.028178,
      "longitudeDeg": 145.440745,
      "region": "AU-QLD",
      "municipality": "Brides Creek"
    },
    {
      "ident": "AU-0563",
      "name": "Yagoonya airstrip",
      "type": "small_airport",
      "latitudeDeg": -16.373305,
      "longitudeDeg": 141.493478,
      "region": "AU-QLD",
      "municipality": "Yagoonya"
    },
    {
      "ident": "AU-0564",
      "name": "Archer River Airstrip",
      "type": "small_airport",
      "latitudeDeg": -13.436333,
      "longitudeDeg": 142.928867,
      "elevationFt": 338,
      "region": "AU-QLD",
      "municipality": "Archer River",
      "gpsCode": "YARC"
    },
    {
      "ident": "AU-0565",
      "name": "Moora Airport",
      "type": "small_airport",
      "latitudeDeg": -30.684896,
      "longitudeDeg": 115.982059,
      "elevationFt": 659,
      "region": "AU-WA",
      "municipality": "Moora",
      "icaoCode": "YMRO",
      "gpsCode": "YMRO"
    },
    {
      "ident": "AU-0566",
      "name": "Marble Bar  airstrip",
      "type": "small_airport",
      "latitudeDeg": -20.846279,
      "longitudeDeg": 120.06649,
      "region": "AU-WA",
      "municipality": "Marble Bar"
    },
    {
      "ident": "AU-0567",
      "name": "Fairholme airstrip",
      "type": "small_airport",
      "latitudeDeg": -33.290925,
      "longitudeDeg": 147.378384,
      "region": "AU-NSW",
      "municipality": "Fairholme NSW 2871"
    },
    {
      "ident": "AU-0568",
      "name": "Limmen Airstrip",
      "type": "small_airport",
      "latitudeDeg": -14.832597,
      "longitudeDeg": 135.196424,
      "region": "AU-NT",
      "municipality": "Limmen"
    },
    {
      "ident": "AU-0569",
      "name": "Manberry Station airstrip",
      "type": "small_airport",
      "latitudeDeg": -24.020713,
      "longitudeDeg": 114.145246,
      "region": "AU-WA",
      "municipality": "Manberry Station"
    },
    {
      "ident": "AU-0570",
      "name": "Middle Point Research Station Airstrip",
      "type": "small_airport",
      "latitudeDeg": -12.585853,
      "longitudeDeg": 131.308722,
      "elevationFt": 39,
      "region": "AU-NT",
      "municipality": "Middle Point NT 0822",
      "gpsCode": "YCPX"
    },
    {
      "ident": "AU-0571",
      "name": "Lake MacKay Airstrip",
      "type": "small_airport",
      "latitudeDeg": -23.670782,
      "longitudeDeg": 129.976158,
      "region": "AU-NT",
      "municipality": "Lake MacKay"
    },
    {
      "ident": "AU-0572",
      "name": "Eringa airstrip",
      "type": "small_airport",
      "latitudeDeg": -26.692097,
      "longitudeDeg": 135.398844,
      "region": "AU-SA",
      "municipality": "Eringa"
    },
    {
      "ident": "AU-0573",
      "name": "Hawker gate House airstrip (Milparinka)",
      "type": "small_airport",
      "latitudeDeg": -29.785349,
      "longitudeDeg": 141.022353,
      "region": "AU-NSW",
      "municipality": "Milparinka"
    },
    {
      "ident": "AU-0574",
      "name": "Wagga Wagga Station airstrip",
      "type": "small_airport",
      "latitudeDeg": -28.342064,
      "longitudeDeg": 116.93234,
      "region": "AU-WA",
      "municipality": "Yalgoo"
    },
    {
      "ident": "AU-0575",
      "name": "Plumridge Lakes airstrip",
      "type": "small_airport",
      "latitudeDeg": -29.278875,
      "longitudeDeg": 124.683366,
      "region": "AU-WA",
      "municipality": "Plumridge Lakes"
    },
    {
      "ident": "AU-0576",
      "name": "Port Wine Airstrip",
      "type": "small_airport",
      "latitudeDeg": -23.987061,
      "longitudeDeg": 147.072161,
      "region": "AU-QLD",
      "municipality": "Port Wine"
    },
    {
      "ident": "AU-0577",
      "name": "Brewarrina airstrip",
      "type": "small_airport",
      "latitudeDeg": -30.180618,
      "longitudeDeg": 146.982093,
      "region": "AU-NSW",
      "municipality": "Brewarrina"
    },
    {
      "ident": "AU-0578",
      "name": "YDNA",
      "type": "small_airport",
      "latitudeDeg": -42.763332,
      "longitudeDeg": 146.561349,
      "region": "AU-TAS",
      "municipality": "Maydena"
    },
    {
      "ident": "AU-0579",
      "name": "Honeymoon Airstrip",
      "type": "small_airport",
      "latitudeDeg": -13.629492,
      "longitudeDeg": 131.087496,
      "elevationFt": 324,
      "region": "AU-NT",
      "municipality": "Tipperary"
    },
    {
      "ident": "AU-0582",
      "name": "Hillsborough Airstrip",
      "type": "small_airport",
      "latitudeDeg": -20.013041,
      "longitudeDeg": 146.996963,
      "elevationFt": 1200,
      "region": "AU-QLD",
      "municipality": "Ravenswood",
      "localCode": "OZHIH"
    },
    {
      "ident": "AU-0583",
      "name": "Harriedale Airfield",
      "type": "small_airport",
      "latitudeDeg": -32.803117,
      "longitudeDeg": 141.411426,
      "elevationFt": 170,
      "region": "AU-SA",
      "municipality": "Harriedale",
      "localCode": "OZHLE"
    },